     3.01           OBSERVATION DATA    G                   RINEX VERSION / TYPE
teqc  2009Mar23                         20150904 10:35:58UTCPGM / RUN BY / DATE 
gfzrnx-1.10-7329    FILE CONVERSION     20181204 072820 UTC COMMENT             
MSXP|IAx86-PII|bcc32 5.0|MSWin95->XP|486/DX+                COMMENT             
BIT 2 OF LLI FLAGS DATA COLLECTED UNDER A/S CONDITION       COMMENT             
-Unknown-                                                   MARKER NAME         
-Unknown-           -Unknown-                               OBSERVER / AGENCY   
2815658             LEICA               5.61                REC # / TYPE / VERS 
                    LEIGS14         NONE                    ANT # / TYPE        
 -2266975.2106  5006703.0569  3225639.2324                  APPROX POSITION XYZ 
        2.0000        0.0000        0.0000                  ANTENNA: DELTA H/E/N
     1     1                                                WAVELENGTH FACT L1/2
DefaultJobName                                              COMMENT             
DefaultUserDiscription                                      COMMENT             
Project creator:                                            COMMENT             
 SNR is mapped to RINEX snr flag value [0-9]                COMMENT             
  L1 & L2: min(max(int(snr_dBHz/6), 0), 9)                  COMMENT             
                                                            COMMENT             
*********************************************************** COMMENT             
*                 WARNING - FORMAT CONVERSION             * COMMENT             
* ------------------------------------------------------- * COMMENT             
*  The data values: observation, loss of lock (LLI) and   * COMMENT             
*  signal strength (SSI) indicators are left as they are. * COMMENT             
*    The LLI meaning differs between versions 2 and 3     * COMMENT             
*    and the Interpretation of bit 1 and 2 has to be      * COMMENT             
*                   used with caution !!!                 * COMMENT             
*********************************************************** COMMENT             
                                                            COMMENT             
RINEX 2 -> 3 TYPE CONVERSION DETAILS:                       COMMENT             
-------------------------------------                       COMMENT             
   G C1  -> C1C                                             COMMENT             
   G P2  -> C2W                                             COMMENT             
-------------------------------------                       COMMENT             
                                                            COMMENT             
G    6 C1C L1  L2  C2W S1  S2                               SYS / # / OBS TYPES 
    13                                                      # OF SATELLITES     
   G02   275   275   275   275   275   275                  PRN / # OF OBS      
   G03    14    14    14    14    14    14                  PRN / # OF OBS      
   G05   275   275   275   275   275   275                  PRN / # OF OBS      
   G06   275   275   275   275   275   275                  PRN / # OF OBS      
   G09   275   275   275   275   275   275                  PRN / # OF OBS      
   G12   275   275   275   275   275   275                  PRN / # OF OBS      
   G13   112   112   112   112   112   112                  PRN / # OF OBS      
   G17   275   275   275   275   275   275                  PRN / # OF OBS      
   G20    82    80    80    80    82    80                  PRN / # OF OBS      
   G23   152   152   151   151   152   151                  PRN / # OF OBS      
   G25   189   189   188   188   189   188                  PRN / # OF OBS      
   G28    73    73    73    73    73    73                  PRN / # OF OBS      
   G29    39    39    38    38    39    38                  PRN / # OF OBS      
    30.000                                                  INTERVAL            
  2015     8    26     7    36    0.0000000     GPS         TIME OF FIRST OBS   
  2015     8    26     9    53    0.0000000     GPS         TIME OF LAST OBS    
                                                            END OF HEADER      
> 2015 08 26 07 36 00.0000000  0  8
G02  22509027.600   118285739.970 8  92170682.74246  22509022.520          49.250          41.400
G03  24963176.720   131182377.217 6 102220029.82246  24963175.740          41.000          37.050
G05  23993552.500   126086968.020 7  98249611.97446  23993560.420          43.100          38.650
G06  20904852.360   109855739.545 8  85601874.50747  20904852.160          50.850          45.750
G09  23131004.020   121554245.377 7  94717595.49346  23131004.800          45.700          37.250
G12  23344121.140   122674183.525 7  95590263.49946  23344118.500          45.200          36.950
G17  20818826.880   109403671.595 8  85249598.42047  20818823.100          51.050          45.250
G23  24384205.820   128139868.485 7  99849228.58145  24384203.600          44.400          34.500
> 2015 08 26 07 36 30.0000000  0  9
G02  22500714.620   118242054.818 8  92136642.36246  22500709.720          49.300          41.550
G03  24982989.840   131286495.576 6 102301160.93545  24982989.040          38.800          35.450
G05  23973215.120   125980094.666 7  98166334.45146  23973222.040          43.150          40.400
G06  20904303.300   109852854.512 8  85599626.41647  20904303.240          50.800          45.700
G09  23121866.660   121506229.708 7  94680180.74646  23121867.620          44.750          39.800
G12  23330860.140   122604495.793 7  95535961.34646  23330858.140          44.600          37.200
G17  20821564.200   109418056.028 8  85260807.03047  20821560.520          50.800          45.800
G23  24384897.020   128143503.357 7  99852060.97345  24384894.820          44.350          33.200
G28  23180423.880   121813943.680 7  94919961.10646  23180426.380          43.550          37.450
> 2015 08 26 07 37 00.0000000  0  9
G02  22492371.960   118198213.830 8  92102480.58546  22492367.100          48.750          41.700
G03  25002768.320   131390432.132 6 102382150.37744  25002767.460          36.200          29.700
G05  23952861.820   125873137.350 7  98082991.53146  23952867.980          44.150          38.000
G06  20903739.800   109849893.318 8  85597318.99247  20903739.740          50.700          45.650
G09  23112750.280   121458324.355 7  94642851.97546  23112751.500          46.100          38.550
G12  23317636.300   122535004.376 7  95481812.18846  23317634.900          44.150          38.800
G17  20824325.400   109432566.276 8  85272113.67447  20824321.860          50.700          45.450
G23  24385626.740   128147339.173 7  99855049.98145  24385624.460          43.700          33.150
G28  23200213.600   121917937.440 7  95000994.75445  23200216.140          44.250          35.850
> 2015 08 26 07 37 30.0000000  0  9
G02  22484048.900   118154476.031 8  92068399.21747  22484044.060          49.250          42.100
G03  25022560.860   131494446.134 6 102463186.61344  25022557.720          36.250          28.000
G05  23932542.280   125766357.707 7  97999787.06446  23932547.800          45.550          38.500
G06  20903211.040   109847114.663 8  85595153.82247  20903210.980          50.950          45.950
G09  23103705.000   121410791.374 7  94605813.36946  23103706.260          46.400          39.350
G12  23304499.520   122465970.719 7  95428019.74946  23304498.420          43.600          39.300
G17  20827160.020   109447462.681 8  85283721.24147  20827156.620          50.800          45.800
G23  24386444.320   128151636.170 7  99858398.33445  24386442.060          45.400          31.200
G28  23220032.120   122022082.222 7  95082146.08845  23220034.660          45.350          33.900
> 2015 08 26 07 38 00.0000000  0  9
G02  22475746.420   118110846.314 8  92034402.07946  22475741.580          48.850          41.500
G03  25042368.200   131598536.813 5 102544303.33144  25042364.120          35.950          28.650
G05  23912257.960   125659763.448 7  97916727.04346  23912262.940          46.350          38.750
G06  20902717.980   109844523.489 8  85593134.74247  20902717.920          50.750          45.950
G09  23094732.220   121363638.932 7  94569071.29846  23094733.440          45.800          39.800
G12  23291451.280   122397402.904 7  95374590.34146  23291450.480          43.350          39.650
G17  20830069.480   109462752.057 8  85295635.01047  20830066.160          50.650          45.600
G23  24387350.980   128156400.583 7  99862110.88645  24387348.580          44.800          33.550
G28  23239880.000   122126380.821 7  95163417.28545  23239882.420          45.800          34.400
> 2015 08 26 07 38 30.0000000  0  9
G02  22467462.080   118067312.079 8  92000479.33346  22467457.220          48.600          41.500
G03  25062187.520   131702691.750 6 102625463.07844  25062183.960          38.700          26.300
G05  23892006.940   125553344.434 7  97833803.55446  23892011.540          46.700          37.200
G06  20902258.160   109842106.906 8  85591251.70247  20902258.020          50.750          45.800
G09  23085830.000   121316857.418 7  94532618.26746  23085831.160          44.850          41.300
G12  23278489.760   122329290.849 7  95321516.06646  23278489.240          44.800          39.800
G17  20833051.600   109478423.140 8  85307846.21947  20833048.260          50.650          45.400
G23  24388344.420   128161620.969 7  99866178.76545  24388341.860          44.050          33.500
G28  23259754.220   122230817.919 7  95244796.39245  23259756.620          45.950          34.100
> 2015 08 26 07 39 00.0000000  0  9
G02  22459194.780   118023867.595 8  91966626.53746  22459189.920          48.100          40.650
G03  25082017.820   131806903.315 6 102706666.91745  25082015.600          39.900          33.850
G05  23871788.660   125447097.591 7  97751014.20946  23871793.000          45.700          39.900
G06  20901830.420   109839859.004 8  85589500.10347  20901830.220          50.600          46.100
G09  23076997.800   121270444.241 7  94496452.22846  23076998.980          45.700          41.200
G12  23265614.540   122261631.676 7  95268794.68646  23265614.040          44.200          38.800
G17  20836105.520   109494471.661 8  85320351.53847  20836102.200          50.650          45.800
G23  24389423.660   128167292.437 7  99870598.12945  24389421.040          44.000          33.000
G28  23279653.180   122335385.400 7  95326277.10245  23279655.660          45.800          34.450
> 2015 08 26 07 39 30.0000000  0  9
G02  22450946.400   117980522.399 7  91932851.09446  22450941.540          47.900          41.250
G03  25101860.620   131911179.512 7 102787921.11346  25101859.380          42.050          36.400
G05  23851605.420   125341035.131 7  97668368.54846  23851609.600          45.900          38.650
G06  20901436.580   109837789.311 8  85587887.35947  20901436.360          50.700          46.100
G09  23068238.120   121224412.051 7  94460583.06946  23068239.300          46.800          39.900
G12  23252827.880   122194437.540 7  95216435.63946  23252827.300          44.100          40.100
G17  20839233.440   109510908.921 8  85333159.76747  20839230.120          50.750          45.700
G23  24390590.840   128173425.923 7  99875377.51645  24390588.060          45.100          32.700
G28  23299578.320   122440090.534 7  95407865.05745  23299580.880          44.050          34.950
> 2015 08 26 07 40 00.0000000  0  9
G02  22442713.900   117937260.882 8  91899140.85646  22442709.080          48.400          41.500
G03  25121712.580   132015503.180 6 102869212.31045  25121712.040          41.150          35.000
G05  23831454.740   125235144.183 7  97585856.55746  23831458.840          44.950          37.500
G06  20901073.660   109835882.151 8  85586401.27547  20901073.420          50.700          45.550
G09  23059548.600   121178748.460 7  94425001.12846  23059549.760          47.050          38.900
G12  23240127.260   122127695.668 7  95164429.00446  23240126.620          44.900          37.150
G17  20842432.680   109527720.985 8  85346260.05747  20842429.380          50.850          45.450
G23  24391843.280   128180007.166 7  99880505.78844  24391840.320          45.600          29.800
G28  23319526.260   122544915.669 7  95489546.49145  23319528.940          44.000          35.050
> 2015 08 26 07 40 30.0000000  0  9
G02  22434498.020   117894086.459 8  91865498.50646  22434493.220          48.450          41.850
G03  25141574.020   132119875.752 6 102950541.56045  25141574.020          40.500          35.450
G05  23811337.760   125129430.311 7  97503482.50045  23811341.760          43.600          35.250
G06  20900742.200   109834140.482 8  85585044.15347  20900741.940          50.750          46.150
G09  23050930.420   121133459.576 7  94389711.16846  23050931.500          46.700          41.100
G12  23227513.820   122061411.714 7  95112779.19246  23227513.040          45.650          38.900
G17  20845704.120   109544912.434 8  85359655.96547  20845700.840          50.650          45.750
G23  24393181.660   128187040.062 7  99885985.99145  24393178.520          45.550          34.750
G28  23339497.120   122649861.368 7  95571321.87845  23339499.940          43.300          33.550
> 2015 08 26 07 41 00.0000000  0  9
G02  22426300.380   117851007.878 8  91831930.82146  22426295.600          48.400          41.500
G03  25161446.120   132224304.171 6 103031914.34445  25161446.500          38.450          35.350
G05  23791256.620   125023905.063 7  97421255.45245  23791260.520          42.950          35.800
G06  20900443.900   109832572.981 8  85583822.74247  20900443.640          50.750          46.150
G09  23042385.800   121088557.295 7  94354722.43746  23042386.860          46.350          40.200
G12  23214989.760   121995597.332 7  95061495.27346  23214988.840          45.750          38.000
G17  20849049.720   109562493.602 8  85373355.55647  20849046.440          50.600          45.350
G23  24394607.780   128194534.231 7  99891825.63845  24394604.520          45.400          32.650
G28  23359492.180   122754934.089 7  95653196.20145  23359495.120          42.550          35.400
> 2015 08 26 07 41 30.0000000  0  9
G02  22418119.860   117808019.191 8  91798433.20546  22418115.080          48.700          41.100
G03  25181327.440   132328780.803 6 103113324.65345  25181328.160          36.200          34.250
G05  23771210.640   124918564.971 6  97339172.68346  23771214.520          41.550          36.250
G06  20900177.580   109831173.513 8  85582732.25347  20900177.340          50.850          46.100
G09  23033914.160   121044038.634 7  94320032.62746  23033915.220          46.000          40.350
G12  23202554.440   121930249.321 7  95010574.79046  23202553.360          46.200          38.650
G17  20852468.620   109580459.988 8  85387355.31647  20852465.360          50.650          45.750
G23  24396120.800   128202485.102 7  99898021.16345  24396117.420          44.850          33.900
G28  23379509.800   122860125.312 7  95735162.83245  23379512.840          42.400          33.100
> 2015 08 26 07 42 00.0000000  0  9
G02  22409955.640   117765116.272 8  91765002.41847  22409950.880          48.000          42.250
G03  25201216.880   132433299.899 6 103194768.02645  25201217.880          37.000          32.250
G05  23751199.580   124813408.863 6  97257233.27445  23751203.600          41.700          34.650
G06  20899942.420   109829937.852 8  85581769.42347  20899942.200          50.750          46.150
G09  23025515.300   120999902.516 7  94285640.93046  23025516.340          45.000          40.150
G12  23190207.600   121865366.113 7  94960016.47646  23190206.360          45.600          38.600
G17  20855960.280   109598808.711 8  85401653.01047  20855957.020          50.600          46.150
G23  24397720.100   128210889.509 7  99904570.10145  24397716.640          45.100          34.450
G28  23399548.780   122965428.624 7  95817216.81045  23399551.880          43.000          34.050
> 2015 08 26 07 42 30.0000000  0  9
G02  22401807.740   117722299.139 8  91731638.48046  22401803.020          48.400          41.600
G03  25221114.020   132537859.760 6 103276243.28445  25221115.240          38.350          33.550
G05  23731224.080   124708439.366 7  97175439.22645  23731228.260          42.800          35.350
G06  20899738.460   109828866.066 8  85580934.27347  20899738.240          50.700          46.500
G09  23017189.800   120956152.152 7  94251549.80346  23017190.880          45.900          39.050
G12  23177949.680   121800950.256 7  94909822.32546  23177948.320          46.050          38.450
G17  20859525.020   109617541.510 8  85416249.98047  20859521.800          50.600          45.650
G23  24399405.940   128219748.593 7  99911473.33045  24399402.400          43.750          30.700
G28  23419608.680   123070841.881 7  95899356.47945  23419611.800          43.300          34.050
> 2015 08 26 07 43 00.0000000  0  8
G02  22393675.820   117679565.877 7  91698339.90846  22393671.080          47.850          41.750
G05  23711284.220   124603656.884 7  97093790.88046  23711288.580          44.200          36.800
G06  20899565.280   109827955.986 8  85580225.12247  20899565.080          50.650          46.200
G09  23008937.900   120912788.482 7  94217760.00246  23008938.960          46.850          39.150
G12  23165780.800   121737002.341 7  94859992.81046  23165779.340          46.350          38.550
G17  20863162.820   109636658.204 8  85431146.07947  20863159.620          50.650          46.000
G23  24401178.060   128229061.230 7  99918729.97845  24401174.460          43.950          32.600
G28  23439688.700   123176360.626 7  95981578.30645  23439691.840          43.650          34.900
> 2015 08 26 07 43 30.0000000  0  8
G02  22385560.180   117636918.234 7  91665108.04646  22385555.440          47.900          41.850
G05  23691380.860   124499065.881 7  97012291.74846  23691385.340          45.700          37.050
G06  20899423.200   109827209.429 8  85579643.40247  20899423.000          50.750          46.050
G09  23000760.540   120869816.415 7  94184275.35246  23000761.520          47.350          39.350
G12  23153701.820   121673526.915 7  94810531.49446  23153700.280          45.550          38.950
G17  20866874.240   109656161.843 8  85446343.70747  20866871.060          50.600          45.800
G23  24403037.020   128238830.231 7  99926342.22145  24403033.380          44.550          32.900
G28  23459788.640   123281984.004 7  96063881.66045  23459791.840          44.600          34.600
> 2015 08 26 07 44 00.0000000  0  8
G02  22377461.100   117594357.642 7  91631944.00946  22377456.380          47.650          41.000
G05  23671514.720   124394670.074 7  96930944.72046  23671519.260          45.550          37.300
G06  20899312.400   109826627.253 8  85579189.77047  20899312.220          50.750          45.850
G09  22992658.480   120827239.844 7  94151098.86746  22992659.380          47.150          40.200
G12  23141713.480   121610527.674 7  94761441.17446  23141711.940          45.650          37.800
G17  20870659.800   109676055.016 8  85461844.85847  20870656.620          50.600          45.650
G23  24404983.240   128249057.652 7  99934311.66045  24404979.580          43.350          34.900
G28  23479908.300   123387711.093 7  96146265.79245  23479911.580          44.400          35.000
> 2015 08 26 07 44 30.0000000  0  8
G02  22369378.460   117551883.426 7  91598847.27346  22369373.740          47.200          40.800
G05  23651686.100   124290471.395 7  96849751.30246  23651690.640          45.750          37.250
G06  20899232.780   109826208.915 8  85578863.81147  20899232.600          50.600          45.850
G09  22984632.180   120785061.308 7  94118232.53346  22984633.020          46.400          38.900
G12  23129816.100   121548006.594 7  94712723.46946  23129814.560          44.200          39.350
G17  20874519.660   109696338.580 8  85477650.21347  20874516.480          50.650          45.750
G23  24407016.740   128259743.956 7  99942638.71645  24407013.040          43.100          34.250
G28  23500047.120   123493538.991 7  96228728.48146  23500050.520          43.850          36.400
> 2015 08 26 07 45 00.0000000  0  8
G02  22361312.200   117509495.354 7  91565817.67246  22361307.480          47.800          40.550
G05  23631895.540   124186472.535 7  96768713.58346  23631900.020          45.250          38.750
G06  20899184.300   109825954.217 8  85578665.37047  20899184.100          50.500          46.200
G09  22976682.160   120743283.661 7  94085678.55746  22976682.960          45.700          39.850
G12  23118010.120   121485966.141 7  94664380.29746  23118008.660          45.100          37.550
G17  20878454.040   109717013.732 8  85493760.69047  20878450.840          50.400          45.650
G23  24409137.700   128270889.681 7  99951323.71545  24409133.980          42.100          34.500
G28  23520204.640   123599465.225 7  96311267.78345  23520208.200          43.250          34.950
> 2015 08 26 07 45 30.0000000  0  8
G02  22353261.260   117467187.786 7  91532850.79946  22353256.560          47.900          40.750
G05  23612142.280   124082669.801 7  96687828.70946  23612146.660          45.550          37.800
G06  20899165.820   109825857.167 8  85578589.76547  20899165.640          50.450          45.850
G09  22968807.800   120701903.882 7  94053434.64346  22968808.580          45.550          39.600
G12  23106294.980   121424402.899 7  94616408.97046  23106293.540          46.400          36.900
G17  20882462.020   109738075.746 8  85510172.61847  20882458.840          50.400          45.700
G23  24411345.160   128282490.096 7  99960363.03445  24411341.440          42.650          34.550
G28  23540379.300   123705481.503 7  96393877.18845  23540383.060          42.900          35.550
> 2015 08 26 07 46 00.0000000  0  8
G02  22345225.880   117424961.899 8  91499947.55247  22345221.200          48.250          42.400
G05  23592427.080   123979067.100 7  96607099.67546  23592431.360          44.800          38.450
G06  20899177.520   109825918.727 8  85578637.74847  20899177.340          50.400          46.300
G09  22961009.920   120660925.991 7  94021503.89646  22961010.660          45.850          40.050
G12  23094671.380   121363320.600 7  94568812.38846  23094669.960          46.050          38.100
G17  20886544.160   109759527.473 8  85526888.21947  20886541.000          50.350          45.650
G23  24413639.480   128294547.026 6  99969758.06945  24413635.760          41.550          35.650
G28  23560570.760   123811586.221 6  96476555.54246  23560574.740          41.950          36.850
> 2015 08 26 07 46 30.0000000  0  8
G02  22337204.540   117382809.604 8  91467101.65147  22337199.860          48.700          42.200
G05  23572748.940   123875659.066 7  96526522.33346  23572753.120          44.400          38.700
G06  20899217.900   109826131.022 8  85578803.18747  20899217.740          50.550          45.950
G09  22953287.560   120620345.025 7  93989882.43246  22953288.280          46.350          39.950
G12  23083138.320   121302713.950 7  94521586.44146  23083136.840          46.150          36.700
G17  20890699.240   109781362.445 8  85543902.45847  20890696.080          50.550          46.100
G23  24416019.360   128307053.369 7  99979503.26745  24416015.640          42.950          34.550
G28  23580777.220   123917769.589 7  96559295.14946  23580781.440          42.750          37.650
> 2015 08 26 07 47 00.0000000  0  8
G02  22329200.460   117340748.022 8  91434326.41947  22329195.800          48.200          42.100
G05  23553111.540   123772465.117 7  96446111.81646  23553115.620          44.050          40.500
G06  20899290.180   109826510.922 8  85579099.21547  20899290.020          50.650          46.400
G09  22945644.540   120580180.857 7  93958585.72946  22945645.240          45.400          39.950
G12  23071699.380   121242602.067 7  94474746.05846  23071697.820          45.850          38.550
G17  20894930.720   109803598.907 8  85561229.53047  20894927.600          50.500          46.350
G23  24418488.100   128320026.790 6  99989612.47245  24418484.360          41.700          31.800
G28  23601001.480   124024046.136 7  96642107.29845  23601005.940          43.950          35.600
> 2015 08 26 07 47 30.0000000  0  8
G02  22321212.920   117298773.324 8  91401618.90046  22321208.260          48.650          41.950
G05  23533514.640   123669484.084 7  96365867.19546  23533518.660          42.750          39.000
G06  20899393.600   109827054.435 8  85579522.74247  20899393.460          50.600          46.050
G09  22938080.600   120540432.386 7  93927612.95646  22938081.280          45.400          39.600
G12  23060354.380   121182983.637 7  94428290.13046  23060352.780          46.000          37.400
G17  20899238.080   109826234.184 8  85578867.38647  20899234.980          50.500          45.250
G23  24421045.120   128333464.407 6 100000083.43945  24421041.360          41.000          33.650
G28  23621242.300   124130409.370 7  96724986.96445  23621246.980          43.600          34.750
> 2015 08 26 07 48 00.0000000  0  8
G02  22313236.840   117256858.864 8  91368958.33347  22313232.160          48.650          42.000
G05  23513953.700   123566692.022 7  96285769.85546  23513957.640          43.100          40.250
G06  20899523.080   109827734.970 8  85580053.05747  20899522.940          50.450          46.000
G09  22930591.240   120501075.962 7  93896945.67846  22930591.940          46.750          39.950
G12  23049098.640   121123834.450 7  94382199.90446  23049096.960          45.350          38.000
G17  20903616.520   109849242.986 8  85596796.30047  20903613.420          50.400          45.550
G23  24423685.600   128347340.426 6 100010895.94545  24423681.840          41.150          32.200
G28  23641494.120   124236830.341 7  96807911.63145  23641499.000          42.850          35.850
> 2015 08 26 07 48 30.0000000  0  8
G02  22305279.260   117215041.617 8  91336373.50946  22305274.580          48.400          41.550
G05  23494436.180   123464128.213 6  96205850.36846  23494440.060          41.550          39.500
G06  20899685.660   109828589.407 8  85580718.86147  20899685.520          50.550          46.150
G09  22923184.100   120462151.365 7  93866614.88346  22923184.760          45.450          40.800
G12  23037939.720   121065193.917 7  94336506.00446  23037937.960          46.000          38.850
G17  20908073.420   109872663.994 8  85615046.40747  20908070.320          50.400          45.300
G23  24426416.660   128361692.277 7 100022079.22245  24426412.880          42.800          31.700
G28  23661763.580   124343343.707 6  96890908.27845  23661768.600          41.650          33.700
> 2015 08 26 07 49 00.0000000  0  8
G02  22297336.680   117173303.185 8  91303850.11346  22297331.980          49.000          41.500
G05  23474959.060   123361776.678 6  96126096.28546  23474962.880          41.550          38.200
G06  20899877.760   109829598.994 8  85581505.57447  20899877.640          50.600          46.350
G09  22915856.080   120423642.718 7  93836608.21646  22915856.740          45.350          39.800
G12  23026874.500   121007045.877 7  94291195.87446  23026872.700          45.700          39.550
G17  20912605.400   109896479.546 8  85633603.95047  20912602.280          50.600          45.200
G23  24429234.920   128376502.294 7 100033619.48345  24429231.120          42.550          30.800
G28  23682046.580   124449928.136 6  96973960.23945  23682051.800          39.600          32.500
> 2015 08 26 07 49 30.0000000  0  8
G02  22289409.940   117131648.040 8  91271391.60547  22289405.220          48.550          42.250
G05  23455523.640   123259644.446 7  96046513.09246  23455527.420          42.650          39.750
G06  20900100.260   109830768.315 8  85582416.75247  20900100.140          50.800          46.350
G09  22908608.620   120385557.447 7  93806931.46446  22908609.260          45.100          39.550
G12  23015904.340   120949397.332 7  94246274.96646  23015902.500          43.600          38.800
G17  20917213.600   109920695.651 8  85652473.61847  20917210.460          50.350          45.800
G23  24432141.320   128391775.434 7 100045520.64145  24432137.420          42.350          32.850
G28  23702343.640   124556586.257 6  97057069.56645  23702349.060          38.850          30.800
> 2015 08 26 07 50 00.0000000  0  8
G02  22281498.460   117090073.058 8  91238995.56547  22281493.720          48.800          42.450
G05  23436129.740   123157730.322 7  95967099.83146  23436133.480          42.000          39.650
G06  20900352.500   109832093.867 8  85583449.66047  20900352.380          50.700          46.100
G09  22901441.600   120347894.915 7  93777584.10446  22901442.220          45.550          39.300
G12  23005028.900   120892246.903 7  94201742.22046  23005027.080          44.800          39.200
G17  20921897.600   109945310.208 8  85671653.78047  20921894.460          50.200          45.650
G23  24435135.260   128407508.890 7 100057780.54245  24435131.300          43.300          35.050
G28  23722653.580   124663312.322 6  97140231.85344  23722659.220          40.550          29.200
> 2015 08 26 07 50 30.0000000  0  8
G02  22273601.500   117048574.372 8  91206658.97747  22273596.740          48.750          42.450
G05  23416777.100   123056033.176 7  95887855.63546  23416780.860          43.250          39.000
G06  20900633.740   109833571.814 8  85584601.32547  20900633.600          50.550          45.900
G09  22894354.860   120310654.082 7  93748565.32846  22894355.440          46.200          39.800
G12  22994248.060   120835593.493 7  94157596.74946  22994246.240          44.900          40.200
G17  20926656.880   109970320.323 8  85691142.16247  20926653.740          50.300          46.150
G23  24438216.380   128423700.271 7 100070397.18745  24438212.440          44.200          34.150
G28  23742975.280   124770099.982 6  97223442.09745  23742981.100          41.100          31.550
> 2015 08 26 07 51 00.0000000  0  8
G02  22265719.020   117007151.775 8  91174381.66846  22265714.240          48.800          41.850
G05  23397466.200   122954555.325 7  95808782.32946  23397469.940          44.700          37.000
G06  20900943.920   109835201.821 8  85585871.47747  20900943.780          50.500          45.750
G09  22887348.820   120273837.406 7  93719877.07546  22887349.380          46.950          39.700
G12  22983562.200   120779439.093 7  94113840.10646  22983560.400          45.650          39.950
G17  20931491.640   109995727.040 8  85710939.59847  20931488.500          50.500          45.750
G23  24441384.680   128440349.490 7 100083370.56545  24441380.700          45.350          34.150
G28  23763308.300   124876946.940 6  97306698.51945  23763314.240          41.400          30.950
> 2015 08 26 07 51 30.0000000  0  8
G02  22257851.020   116965805.330 8  91142163.70146  22257846.240          48.900          41.550
G05  23378197.540   122853299.325 7  95729881.89046  23378201.240          46.450          36.000
G06  20901283.060   109836984.069 8  85587260.26047  20901282.900          50.500          46.100
G09  22880424.080   120237447.814 7  93691521.62546  22880424.580          46.500          39.850
G12  22972971.780   120723786.142 7  94070474.20746  22972969.960          45.750          38.950
G17  20936402.180   110021532.109 8  85731047.43447  20936399.040          50.300          45.300
G23  24444640.180   128457457.153 7 100096701.20146  24444636.200          44.500          36.400
G28  23783652.060   124983850.399 7  97389998.95645  23783658.160          42.200          32.750
> 2015 08 26 07 52 00.0000000  0  8
G02  22249998.780   116924541.698 8  91110010.27647  22249993.980          48.650          42.200
G05  23358972.840   122752274.324 7  95651161.44645  23358976.460          46.050          34.300
G06  20901652.400   109838925.074 8  85588772.74847  20901652.240          50.550          45.900
G09  22873582.380   120201494.575 7  93663506.18946  22873582.820          45.950          40.500
G12  22962478.440   120668643.336 7  94027505.81446  22962476.600          45.950          39.900
G17  20941389.940   110047742.976 8  85751471.48247  20941386.820          50.500          45.250
G23  24447984.280   128475030.612 7 100110394.84745  24447980.280          45.050          35.450
G28  23804007.500   125090814.941 7  97473346.90845  23804013.800          42.650          33.700
> 2015 08 26 07 52 30.0000000  0  8
G02  22242161.160   116883354.956 8  91077916.77346  22242156.320          48.350          41.500
G05  23339791.480   122651476.911 7  95572618.34145  23339795.000          46.300          34.750
G06  20902050.800   109841018.717 8  85590404.17247  20902050.620          50.500          45.700
G09  22866823.060   120165974.313 7  93635828.14346  22866823.460          46.000          40.950
G12  22952081.440   120614006.806 7  93984931.93546  22952079.580          45.750          38.600
G17  20946454.060   110074355.090 8  85772208.18647  20946450.960          50.500          45.350
G23  24451416.000   128493064.333 7 100124447.07845  24451411.980          45.700          34.300
G28  23824372.940   125197832.130 7  97556735.90845  23824379.460          43.750          34.100
> 2015 08 26 07 53 00.0000000  0  8
G02  22234337.840   116842243.400 8  91045881.83847  22234333.000          48.800          42.050
G05  23320653.460   122550907.093 7  95494252.54646  23320656.860          45.650          37.500
G06  20902477.900   109843263.229 8  85592153.17047  20902477.700          50.450          45.250
G09  22860146.320   120130887.958 7  93608488.18746  22860146.700          45.900          40.600
G12  22941780.880   120559877.134 7  93942753.00946  22941779.000          45.550          38.600
G17  20951594.420   110101367.775 8  85793257.01347  20951591.320          50.600          45.450
G23  24454935.080   128511557.220 7 100138857.12345  24454931.040          45.000          34.600
G28  23844747.640   125304897.624 7  97640162.47845  23844754.400          44.550          34.600
> 2015 08 26 07 53 30.0000000  0  8
G02  22226529.140   116801208.596 8  91013906.71347  22226524.280          48.900          42.200
G05  23301559.560   122450569.277 7  95416067.56246  23301562.800          45.700          37.200
G06  20902933.980   109845660.030 8  85594020.81747  20902933.780          50.400          46.000
G09  22853552.920   120096239.572 7  93581489.50046  22853553.280          46.100          40.700
G12  22931577.480   120506258.066 7  93900971.97846  22931575.580          45.050          40.400
G17  20956811.440   110128783.434 8  85814619.86047  20956808.340          50.250          45.950
G23  24458541.880   128530511.019 7 100153626.32745  24458537.800          45.300          33.950
G28  23865131.400   125412010.655 7  97723626.06945  23865138.420          44.250          34.350
> 2015 08 26 07 54 00.0000000  0  8
G02  22218734.940   116760250.001 8  90981990.98246  22218730.060          48.450          41.700
G05  23282510.140   122350465.297 7  95338064.79546  23282513.260          46.100          38.100
G06  20903418.920   109848208.598 8  85596006.73947  20903418.720          50.250          46.250
G09  22847043.280   120062031.325 7  93554833.77546  22847043.620          46.400          40.750
G12  22921471.520   120453151.079 7  93859589.92546  22921469.640          46.050          40.700
G17  20962105.320   110156602.901 8  85836297.35647  20962102.220          50.350          45.300
G23  24462236.380   128549925.890 7 100168754.83045  24462232.300          44.550          35.700
G28  23885523.700   125519168.400 7  97807124.47545  23885530.980          43.300          33.650
> 2015 08 26 07 54 30.0000000  0  8
G02  22210954.840   116719365.467 8  90950132.95347  22210949.940          48.200          42.050
G05  23263505.280   122250595.377 7  95260244.39546  23263508.300          46.250          38.850
G06  20903932.340   109850906.654 8  85598109.13747  20903932.120          50.500          45.950
G09  22840617.440   120028263.529 7  93528521.25346  22840617.780          46.450          41.000
G12  22911463.040   120400556.448 7  93818607.16146  22911461.140          47.000          40.150
G17  20967475.840   110184825.056 8  85858288.62847  20967472.740          50.300          45.450
G23  24466018.280   128569799.932 7 100184241.14245  24466014.180          43.850          34.700
G28  23905923.660   125626366.090 7  97890653.94045  23905931.200          43.100          35.500
> 2015 08 26 07 55 00.0000000  0  8
G02  22203188.880   116678555.306 8  90918332.86647  22203184.000          48.050          42.600
G05  23244545.420   122150961.809 7  95182608.17846  23244548.340          46.700          37.900
G06  20904474.200   109853754.264 8  85600328.06747  20904474.000          50.650          46.650
G09  22834275.920   119994938.853 7  93502554.04546  22834276.240          46.900          40.600
G12  22901552.480   120348476.162 7  93778025.14846  22901550.580          47.550          40.200
G17  20972923.180   110213450.931 8  85880594.49047  20972920.080          50.350          45.750
G23  24469887.660   128590133.637 6 100200085.61646  24469883.480          41.800          36.550
G28  23926330.860   125733601.652 7  97974212.90045  23926338.620          42.750          35.600
> 2015 08 26 07 55 30.0000000  0  8
G02  22195437.280   116637820.678 8  90886591.65547  22195432.420          48.200          42.450
G05  23225631.280   122051568.436 7  95105159.13446  23225634.100          45.950          37.600
G06  20905044.780   109856752.747 8  85602664.56747  20905044.580          50.600          46.550
G09  22828019.500   119962061.296 7  93476935.22146  22828019.780          46.400          41.300
G12  22891740.520   120296913.835 7  93737846.74146  22891738.540          47.100          40.150
G17  20978447.800   110242483.029 8  85903216.89647  20978444.720          50.250          45.750
G23  24473844.840   128610928.919 7 100216289.76046  24473840.640          43.000          37.350
G28  23946745.060   125840873.944 6  98057800.46345  23946753.060          41.800          35.050
> 2015 08 26 07 56 00.0000000  0  8
G02  22187699.740   116597159.933 8  90854908.01147  22187694.880          48.400          42.050
G05  23206763.100   121952416.606 7  95027898.29946  23206765.800          45.400          38.500
G06  20905643.800   109859900.600 8  85605117.45547  20905643.580          50.400          46.650
G09  22821848.340   119929631.850 7  93451665.57746  22821848.620          45.800          40.250
G12  22882027.160   120245869.747 7  93698072.16146  22882025.140          47.750          41.600
G17  20984049.720   110271921.199 8  85926155.71347  20984046.640          50.300          45.650
G23  24477889.720   128632184.836 7 100232852.77846  24477885.540          42.550          36.900
G28  23967165.560   125948179.270 6  98141413.76045  23967173.760          41.250          32.750
> 2015 08 26 07 56 30.0000000  0  8
G02  22179976.800   116556575.775 8  90823284.04746  22179971.920          48.650          41.300
G05  23187941.660   121853510.382 7  94950828.84346  23187944.240          45.100          36.550
G06  20906271.700   109863200.177 8  85607688.56247  20906271.480          50.500          45.700
G09  22815763.380   119897655.392 7  93426748.91546  22815763.660          46.400          40.200
G12  22872413.360   120195348.829 7  93658705.25746  22872411.300          47.400          41.150
G17  20989729.440   110301768.213 8  85949413.10947  20989726.360          50.250          45.650
G23  24482022.680   128653903.963 7 100249776.81245  24482018.540          42.550          35.650
G28  23987592.300   126055517.255 6  98225052.49545  23987600.700          38.900          31.800
> 2015 08 26 07 57 00.0000000  0  8
G02  22172267.840   116516065.137 8  90791717.37846  22172262.940          48.550          41.250
G05  23169166.860   121754849.280 7  94873950.36746  23169169.340          45.300          37.900
G06  20906927.860   109866648.379 8  85610375.49347  20906927.640          50.350          45.900
G09  22809764.520   119866131.386 7  93402184.81146  22809764.780          46.500          40.550
G12  22862898.880   120145349.734 7  93619744.94646  22862896.780          46.400          40.300
G17  20995486.620   110332022.330 8  85972987.73147  20995483.540          50.350          45.250
G23  24486243.260   128676083.597 7 100267059.70146  24486239.180          42.900          36.600
G28  24008024.260   126162882.688 6  98308712.58345  24008032.880          39.600          35.050
> 2015 08 26 07 57 30.0000000  0  8
G02  22164573.780   116475632.855 8  90760211.76546  22164568.860          48.550          41.600
G05  23150440.020   121656440.354 7  94797268.41446  23150442.420          44.400          40.500
G06  20907613.200   109870249.867 8  85613181.86047  20907612.980          50.400          46.050
G09  22803853.120   119835066.940 7  93377978.82146  22803853.360          46.700          40.350
G12  22853484.920   120095879.080 7  93581196.42346  22853482.800          45.450          39.350
G17  21001322.360   110362689.364 8  85996884.10747  21001319.320          50.300          45.600
G23  24490552.280   128698728.049 7 100284704.76345  24490548.300          42.900          35.350
G28  24028461.880   126270277.916 5  98392395.85345  24028470.780          34.900          33.600
> 2015 08 26 07 58 00.0000000  0  8
G02  22156891.480   116435262.327 8  90728754.25147  22156886.540          48.700          42.900
G05  23131758.460   121558269.163 7  94720771.66546  23131760.800          44.550          39.300
G06  20908324.520   109873987.953 8  85616094.66447  20908324.300          50.350          46.100
G09  22798026.480   119804447.882 7  93354119.85446  22798026.720          46.450          41.100
G12  22844168.660   120046922.024 7  93543048.09446  22844166.560          46.700          39.950
G17  21007233.740   110393753.681 8  86021090.03747  21007230.700          50.400          45.800
G23  24494946.900   128721821.975 7 100302700.00245  24494943.000          43.950          32.950
G28  24048901.580   126377684.065 6  98476087.60845  24048910.760          37.600          34.900
> 2015 08 26 07 58 30.0000000  0  8
G02  22149223.480   116394966.865 8  90697355.23947  22149218.520          48.800          42.250
G05  23113125.120   121460351.603 7  94644472.59846  23113127.420          43.650          39.150
G06  20909064.380   109877876.040 8  85619124.35547  20909064.180          50.400          45.800
G09  22792287.620   119774290.069 7  93330620.30246  22792287.860          46.150          41.050
G12  22834953.140   119998494.236 7  93505312.17946  22834951.020          46.050          39.400
G17  21013223.420   110425229.602 8  86045616.70647  21013220.400          50.400          45.000
G23  24499429.620   128745378.870 7 100321056.02844  24499425.760          43.550          28.950
G28  24069345.360   126485111.899 6  98559796.29245  24069354.840          39.600          32.600
> 2015 08 26 07 59 00.0000000  0  8
G02  22141568.980   116354742.362 8  90666011.50347  22141564.000          48.250          42.450
G05  23094539.660   121362685.792 7  94568369.72246  23094541.940          43.550          38.100
G06  20909832.020   109881910.039 8  85622267.75447  20909831.800          50.650          46.000
G09  22786636.220   119744591.795 7  93307478.81546  22786636.460          46.250          40.750
G12  22825837.860   119950593.458 7  93467986.94646  22825835.720          46.750          40.000
G17  21019290.840   110457114.093 8  86070461.74447  21019287.860          50.500          45.050
G23  24503999.540   128769394.253 7 100339769.37945  24503995.660          43.850          30.250
G28  24089792.100   126592554.977 6  98643516.78145  24089801.900          41.550          32.100
> 2015 08 26 07 59 30.0000000  0  8
G02  22133928.080   116314589.405 8  90634723.53047  22133923.100          48.600          42.300
G05  23076002.680   121265274.426 7  94492465.05346  23076004.920          43.750          40.050
G06  20910627.500   109886090.391 8  85625525.17747  20910627.280          50.600          45.650
G09  22781072.780   119715355.852 7  93284697.61646  22781072.980          46.500          39.900
G12  22816823.380   119903222.188 7  93431074.31746  22816821.220          47.200          39.850
G17  21025436.240   110489408.244 8  86095625.98847  21025433.260          50.500          44.300
G23  24508657.020   128793869.384 7 100358840.92445  24508653.120          43.600          30.250
G28  24110241.280   126700011.253 7  98727247.65645  24110251.400          42.650          30.150
> 2015 08 26 08 00 00.0000000  0  8
G02  22126300.960   116274508.809 8  90603491.93147  22126295.980          48.850          42.600
G05  23057514.760   121168120.878 7  94416761.28446  23057516.960          45.050          38.250
G06  20911450.960   109890417.671 8  85628897.09147  20911450.740          50.600          45.900
G09  22775597.880   119686585.237 7  93262278.99046  22775598.060          46.750          39.750
G12  22807910.160   119856383.043 7  93394576.32946  22807907.980          47.250          38.600
G17  21031659.900   110522113.635 8  86121110.68447  21031656.900          50.400          45.400
G23  24513402.100   128818804.961 7 100378271.28245  24513398.200          44.100          31.150
G28  24130692.660   126807479.072 7  98810987.54344  24130703.060          42.950          28.850
> 2015 08 26 08 00 30.0000000  0  8
G02  22118687.060   116234497.804 8  90572314.58447  22118682.080          48.350          42.700
G05  23039075.740   121071224.238 7  94341257.71246  23039077.840          44.100          39.800
G06  20912301.840   109894889.170 8  85632381.38147  20912301.640          50.400          46.000
G09  22770211.460   119658279.580 7  93240222.66046  22770211.620          46.700          39.900
G12  22799098.040   119810075.095 7  93358492.23646  22799095.840          47.300          39.350
G17  21037961.460   110555228.417 8  86146914.38647  21037958.460          50.150          45.250
G23  24518234.380   128844198.385 7 100398058.30745  24518230.500          42.000          33.250
G28  24151145.300   126914953.828 7  98894732.94144  24151155.940          42.750          25.850
> 2015 08 26 08 01 00.0000000  0  8
G02  22111087.080   116194559.834 8  90541194.13946  22111082.080          48.700          41.850
G05  23020686.660   120974590.019 7  94265958.58046  23020688.700          44.400          40.050
G06  20913180.820   109899508.312 8  85635980.73547  20913180.620          50.400          46.200
G09  22764914.580   119630444.556 7  93218533.10046  22764914.700          46.750          41.150
G12  22790387.980   119764303.252 7  93322825.87846  22790385.700          46.950          39.500
G17  21044341.760   110588757.106 8  86173040.61747  21044338.780          50.300          45.700
G23  24523154.380   128870053.186 7 100418204.91545  24523150.480          43.050          33.150
G28  24171599.400   127022436.149 7  98978484.21743  24171610.260          42.100          21.750
> 2015 08 26 08 01 30.0000000  0  8
G02  22103500.460   116154692.011 8  90510128.34247  22103495.440          48.650          42.350
G05  23002347.460   120878217.942 7  94190863.73346  23002349.440          44.600          39.400
G06  20914087.320   109904272.068 8  85639692.76647  20914087.120          50.300          46.200
G09  22759707.160   119603079.531 7  93197209.75246  22759707.240          46.300          41.100
G12  22781779.720   119719066.588 7  93287576.57446  22781777.380          46.000          41.050
G17  21050800.440   110622697.541 8  86199487.68247  21050797.460          50.250          45.750
G23  24528161.600   128896366.402 7 100438708.72445  24528157.660          42.800          32.250
G28  24192053.900   127129920.781 6  99062237.33144  24192065.040          41.050          26.450
> 2015 08 26 08 02 00.0000000  0  8
G02  22095927.080   116114893.693 8  90479116.70147  22095922.020          48.650          42.550
G05  22984058.320   120782108.900 7  94115973.83746  22984060.220          44.250          39.400
G06  20915021.200   109909179.724 8  85643516.92247  20915021.020          50.550          46.500
G09  22754589.460   119576186.012 7  93176253.80446  22754589.520          47.050          40.350
G12  22773273.480   119674366.108 7  93252745.07046  22773271.120          46.600          39.900
G17  21057337.580   110657050.362 8  86226256.09447  21057334.640          50.250          45.900
G23  24533255.960   128923137.523 7 100459569.34644  24533252.000          43.300          29.600
G28  24212508.240   127237404.765 6  99145990.00244  24212519.620          41.800          28.850
> 2015 08 26 08 02 30.0000000  0  8
G02  22088366.860   116075164.616 8  90448159.03047  22088361.760          49.200          42.600
G05  22965819.720   120686265.362 7  94041290.80846  22965821.560          44.350          39.900
G06  20915982.420   109914230.993 8  85647452.99247  20915982.220          50.600          46.350
G09  22749561.840   119549765.996 7  93155666.82946  22749561.900          46.850          41.600
G12  22764869.540   119630203.305 7  93218332.53146  22764867.200          46.050          40.600
G17  21063953.060   110691814.895 8  86253345.32747  21063950.140          50.300          45.600
G23  24538437.440   128950366.353 6 100480786.60645  24538433.460          41.200          32.050
G28  24232961.860   127344885.133 7  99229739.90444  24232973.420          43.350          28.850
> 2015 08 26 08 03 00.0000000  0  8
G02  22080819.540   116035503.300 8  90417254.15347  22080814.420          48.950          42.700
G05  22947631.820   120590688.298 7  93966815.44646  22947633.600          44.050          38.100
G06  20916970.700   109919424.500 8  85651499.89147  20916970.500          50.200          46.150
G09  22744624.520   119523820.267 7  93135449.41947  22744624.540          46.850          42.200
G12  22756568.040   119586578.696 7  93184339.33646  22756565.720          46.050          39.850
G17  21070646.820   110726990.801 8  86280755.09447  21070643.920          50.250          45.350
G23  24543705.760   128978051.685 6 100502359.62645  24543701.760          39.900          33.400
G28  24253414.100   127452358.449 7  99313484.36845  24253425.840          44.150          31.700
> 2015 08 26 08 03 30.0000000  0  8
G02  22073293.800   115995955.390 8  90386437.64947  22073288.660          49.150          42.900
G05  22929503.600   120495424.868 7  93892584.44446  22929505.340          44.050          39.850
G06  20917994.700   109924805.725 8  85655693.06747  20917994.500          50.200          46.150
G09  22739786.500   119498396.508 7  93115638.73246  22739786.540          46.200          40.800
G12  22748377.880   119543539.299 7  93150802.16146  22748375.560          46.250          38.650
G17  21077427.820   110762625.008 8  86308521.97647  21077424.920          50.250          45.100
G23  24549069.560   129006238.846 6 100524323.67944  24549065.580          41.650          27.450
G28  24273873.000   127559867.147 7  99397256.57945  24273884.860          43.250          33.100
> 2015 08 26 08 04 00.0000000  0  8
G02  22065771.740   115956426.722 8  90355636.12647  22065766.580          48.850          42.850
G05  22911417.600   120400383.198 7  93818526.21646  22911419.300          44.450          38.550
G06  20919036.520   109930280.573 8  85659959.19947  20919036.320          50.600          46.150
G09  22735030.320   119473402.810 7  93096163.17146  22735030.360          45.800          41.450
G12  22740281.500   119500992.740 7  93117649.02546  22740279.160          46.150          38.250
G17  21084278.160   110798623.614 8  86336572.80547  21084275.260          50.250          45.000
G23  24554510.900   129034833.470 6 100546605.23544  24554506.980          41.750          29.600
G28  24294320.460   127667315.782 7  99480982.03145  24294332.420          42.800          31.900
> 2015 08 26 08 04 30.0000000  0  8
G02  22058263.200   115916969.186 8  90324890.04347  22058258.020          48.650          42.850
G05  22893384.060   120305617.122 7  93744682.75746  22893385.660          44.650          38.600
G06  20920105.940   109935900.479 8  85664338.36347  20920105.740          50.550          45.950
G09  22730366.160   119448892.721 7  93077064.45946  22730366.200          45.950          41.100
G12  22732288.980   119458991.958 7  93084921.17446  22732286.640          46.050          39.250
G17  21091207.880   110835039.433 8  86364948.74947  21091204.980          50.350          45.800
G23  24560039.720   129063887.487 6 100569244.71445  24560035.840          40.000          30.950
G28  24314765.600   127774752.854 6  99564698.65744  24314777.600          41.650          28.900
> 2015 08 26 08 05 00.0000000  0  8
G02  22050767.720   115877580.238 8  90294197.39447  22050762.520          48.650          42.800
G05  22875403.020   120211126.992 7  93671054.33246  22875404.520          44.850          38.950
G06  20921202.620   109941663.526 8  85668829.06247  20921202.420          50.700          46.100
G09  22725794.080   119424866.402 7  93058342.68146  22725794.120          46.600          41.050
G12  22724400.240   119417536.602 7  93052618.35046  22724397.880          47.050          39.800
G17  21098216.600   110871870.387 8  86393648.17247  21098213.680          50.550          45.850
G23  24565655.600   129093399.154 7 100592240.86745  24565651.700          42.600          32.000
G28  24335207.660   127882173.995 6  99648402.96544  24335219.680          41.600          29.250
> 2015 08 26 08 05 30.0000000  0  8
G02  22043284.880   115838257.882 8  90263556.64647  22043279.680          49.000          42.900
G05  22857474.460   120116912.622 7  93597640.77446  22857475.840          44.200          39.000
G06  20922326.080   109947567.385 8  85673429.48647  20922325.880          50.600          46.100
G09  22721314.000   119401323.659 7  93039997.72946  22721314.040          46.950          40.150
G12  22716615.240   119376626.180 7  93020740.12646  22716612.880          46.650          39.950
G17  21105304.160   110909115.611 8  86422670.40247  21105301.240          50.400          45.050
G23  24571358.060   129123365.489 7 100615591.26645  24571354.120          43.750          32.200
G28  24355645.760   127989575.018 6  99732091.80944  24355657.740          37.950          29.350
> 2015 08 26 08 06 00.0000000  0  8
G02  22035815.000   115799003.564 8  90232968.91247  22035809.800          49.200          42.600
G05  22839598.940   120022976.955 7  93524444.38446  22839600.220          44.050          38.100
G06  20923476.560   109953613.125 8  85678140.46047  20923476.340          50.650          46.100
G09  22716926.540   119378267.600 7  93022032.03346  22716926.560          47.100          40.300
G12  22708934.400   119336263.048 7  92989288.33346  22708932.020          46.950          39.750
G17  21112470.800   110946776.351 8  86452016.40647  21112467.860          50.350          45.300
G23  24577147.180   129153787.347 7 100639296.69045  24577143.100          44.150          30.900
G28  24376079.640   128096954.602 5  99815764.06944  24376091.600          34.100          27.650
> 2015 08 26 08 06 30.0000000  0  8
G02  22028351.200   115759781.306 8  90202406.16747  22028346.000          48.950          42.550
G05  22821769.960   119929286.100 7  93451438.76246  22821771.200          44.100          39.200
G06  20924647.240   109959765.066 8  85682934.18047  20924647.020          50.500          45.900
G09  22712625.300   119355664.571 7  93004419.34646  22712625.280          47.400          39.800
G12  22701351.220   119296413.316 7  92958236.61846  22701348.860          46.050          40.600
G17  21119709.860   110984817.729 8  86481659.01647  21119706.940          50.350          45.250
G23  24583016.220   129184629.163 6 100663329.33345  24583012.000          41.200          34.800
G28  24396501.200   128204474.236 6  99899608.70845  24396514.620          36.300          34.600
> 2015 08 26 08 07 00.0000000  0  8
G02  22020916.940   115720714.182 8  90171964.31647  22020911.720          49.400          42.000
G05  22804011.420   119835965.193 7  93378721.37846  22804012.620          45.000          39.900
G06  20925861.500   109966146.032 8  85687906.37047  20925861.280          50.700          45.750
G09  22708434.020   119333639.398 7  92987256.94846  22708433.960          47.050          40.250
G12  22693889.400   119257201.392 7  92927681.91346  22693887.040          46.800          40.900
G17  21127044.820   111023363.057 8  86511694.31547  21127041.900          50.350          44.800
G23  24588988.460   129216013.496 6 100687784.70145  24588984.180          41.350          33.800
G28  24416935.560   128311854.495 6  99983281.74444  24416949.980          39.550          28.600
> 2015 08 26 08 07 30.0000000  0  8
G02  22013484.340   115681655.910 8  90141529.36247  22013479.100          49.150          42.850
G05  22786295.860   119742870.375 7  93306180.20846  22786297.020          44.800          41.150
G06  20927091.560   109972610.104 8  85692943.32147  20927091.340          50.700          46.000
G09  22704325.320   119312048.144 7  92970432.64346  22704325.220          46.400          41.100
G12  22686521.400   119218482.390 7  92897511.27346  22686519.060          46.650          41.350
G17  21134448.080   111062267.317 8  86542009.29247  21134445.160          50.200          44.550
G23  24595036.180   129247794.434 6 100712549.05246  24595031.920          41.300          36.650
G28  24437352.900   128419146.809 6 100066886.32245  24437367.140          40.550          30.850
> 2015 08 26 08 08 00.0000000  0  8
G02  22006065.600   115642670.292 8  90111151.00647  22006060.320          49.400          42.750
G05  22768635.840   119650067.171 7  93233866.21246  22768636.980          44.600          41.200
G06  20928349.500   109979220.584 8  85698094.34747  20928349.260          50.650          45.200
G09  22700311.580   119290956.032 7  92953997.27846  22700311.480          45.700          40.500
G12  22679259.560   119180321.355 7  92867775.43046  22679257.240          46.750          40.300
G17  21141931.700   111101593.955 8  86572653.40247  21141928.800          50.200          44.850
G23  24601171.300   129280034.910 6 100737671.54345  24601167.080          41.550          31.600
G28  24457764.780   128526411.965 6 100150469.90345  24457778.900          41.600          34.500
> 2015 08 26 08 08 30.0000000  0  8
G02  21998659.980   115603753.617 8  90080826.37347  21998654.660          49.400          43.100
G05  22751031.040   119557554.405 7  93161778.54946  22751032.160          45.500          41.550
G06  20929634.640   109985974.038 8  85703356.79347  20929634.380          50.750          45.800
G09  22696392.540   119270361.569 7  92937949.69046  22696392.440          46.400          39.850
G12  22672103.520   119142716.243 7  92838472.75746  22672101.240          46.500          39.750
G17  21149495.200   111141340.290 8  86603624.54747  21149492.280          50.650          44.700
G23  24607393.260   129312731.428 6 100763149.31745  24607389.140          41.150          34.400
G28  24478170.320   128633644.748 6 100234028.32445  24478184.240          41.600          33.250
> 2015 08 26 08 09 00.0000000  0  8
G02  21991264.880   115564892.311 8  90050544.89647  21991259.540          49.250          43.500
G05  22733479.220   119465319.998 7  93089907.79847  22733480.300          46.700          42.050
