     3.01           OBSERVATION DATA    M (MIXED)           RINEX VERSION / TYPE
teqc  2010Mar17     UNAVCO Archive Ops  20100416 05:01:05UTCPGM / RUN BY / DATE 
gfzrnx-1.10-7329    FILE CONVERSION     20181205 082317 UTC COMMENT             
Solaris 5.10|UltraSparc IIIi|cc -m64 SS12.1|=+|*Sparc       COMMENT             
BIT 2 OF LLI FLAGS DATA COLLECTED UNDER A/S CONDITION       COMMENT             
P494                                                        MARKER NAME         
                                                            MARKER NUMBER       
Michael Jackson     UNAVCO/PBO                              OBSERVER / AGENCY   
4532254564          TRIMBLE NETRS       1.1-2               REC # / TYPE / VERS 
12693979            TRM41249.00     SCIT                    ANT # / TYPE        
 -2330982.7158 -4836495.7229  3431549.6574                  APPROX POSITION XYZ 
        0.0083        0.0000        0.0000                  ANTENNA: DELTA H/E/N
     1     1                                                WAVELENGTH FACT L1/2
    15                  GPS                                 LEAP SECONDS        
RINEX file created by UNAVCO GPS Archive.                   COMMENT             
For more information contact archive@unavco.org             COMMENT             
Monument ID: 18793                                          COMMENT             
UNAVCO 4-char name:   P494                                  COMMENT             
4-char name from Log or data file: P494                     COMMENT             
Monument location: 32.759655 -115.732065 -44.3328           COMMENT             
Visit ID: 92847                                             COMMENT             
End of DB comments                                          COMMENT             
 SNR is mapped to RINEX snr flag value [0-9]                COMMENT             
  L1 & L2: min(max(int(snr_dBHz/6), 0), 9)                  COMMENT             
                                                            COMMENT             
*********************************************************** COMMENT             
*                 WARNING - FORMAT CONVERSION             * COMMENT             
* ------------------------------------------------------- * COMMENT             
*  The data values: observation, loss of lock (LLI) and   * COMMENT             
*  signal strength (SSI) indicators are left as they are. * COMMENT             
*    The LLI meaning differs between versions 2 and 3     * COMMENT             
*    and the Interpretation of bit 1 and 2 has to be      * COMMENT             
*                   used with caution !!!                 * COMMENT             
*********************************************************** COMMENT             
                                                            COMMENT             
RINEX 2 -> 3 TYPE CONVERSION DETAILS:                       COMMENT             
-------------------------------------                       COMMENT             
   G C1  -> C1C                                             COMMENT             
   G P2  -> C2W                                             COMMENT             
-------------------------------------                       COMMENT             
                                                            COMMENT             
G    6 C1C L1C L2W C2W S1  S2                               SYS / # / OBS TYPES 
    28                                                      # OF SATELLITES     
   G02   861   856   833   836   861   836                  PRN / # OF OBS      
   G03  1190  1181  1129  1133  1190  1133                  PRN / # OF OBS      
   G04  1019  1010   960   965  1019   965                  PRN / # OF OBS      
   G05  1094  1083  1071  1079  1094  1079                  PRN / # OF OBS      
   G06  1169  1155  1090  1097  1169  1097                  PRN / # OF OBS      
   G07   983   981   971   973   983   973                  PRN / # OF OBS      
   G08   939   935   918   922   939   922                  PRN / # OF OBS      
   G10  1092  1087  1041  1042  1092  1042                  PRN / # OF OBS      
   G11  1196  1182  1135  1141  1196  1141                  PRN / # OF OBS      
   G12   878   868   836   841   878   841                  PRN / # OF OBS      
   G13   873   869   856   856   873   856                  PRN / # OF OBS      
   G14   864   856   825   827   864   827                  PRN / # OF OBS      
   G15  1172  1169  1153  1154  1172  1154                  PRN / # OF OBS      
   G16  1072  1065  1036  1037  1072  1037                  PRN / # OF OBS      
   G17   867   856   828   833   867   833                  PRN / # OF OBS      
   G18   932   928   907   909   932   909                  PRN / # OF OBS      
   G19  1127  1124  1111  1114  1127  1114                  PRN / # OF OBS      
   G20   960   940   898   906   960   906                  PRN / # OF OBS      
   G21   974   973   947   947   974   947                  PRN / # OF OBS      
   G22   959   958   947   948   959   948                  PRN / # OF OBS      
   G23   940   939   929   930   940   930                  PRN / # OF OBS      
   G24   965   958   941   944   965   944                  PRN / # OF OBS      
   G26  1056  1051  1027  1029  1056  1029                  PRN / # OF OBS      
   G27  1098  1082  1042  1049  1098  1049                  PRN / # OF OBS      
   G28   971   965   955   960   971   960                  PRN / # OF OBS      
   G29   876   873   867   869   876   869                  PRN / # OF OBS      
   G30  1015  1004   982   990  1015   990                  PRN / # OF OBS      
   G31  1009  1003   976   980  1009   980                  PRN / # OF OBS      
    30.000                                                  INTERVAL            
  2010     4     4     0     0    0.0000000     GPS         TIME OF FIRST OBS   
  2010     4     4    23    59   30.0000000     GPS         TIME OF LAST OBS    
                                                            END OF HEADER      
> 2010 04 04 00 00 00.0000000  0 10
G03  25029945.4144   -1467185.70845  -2290867.12743  25029940.2934         35.2504         18.2504
G04  24877591.2034   -4235926.90245  -3274071.64643  24877584.6174         34.2504         18.2504
G06  24981511.523     -684399.272 5                                        34.000
G07  23896314.6724   -7162125.63347  -7399558.02244  23896307.7934         43.2504         29.5004
G11  25595288.2894    2774601.71145   2170983.24942  25595285.7464         34.2504         16.7504
G13  22473784.5864  -15206784.35447 -12824227.09645  22473776.4774         45.7504         32.0004
G16  21253487.4614  -20076766.05847 -15342193.98945  21253477.4184         44.5004         34.7504
G20  20355539.8364  -27762869.05748 -21610396.89847  20355530.0864         50.0004         42.7504
G23  21006223.9224  -23706789.56348 -19277364.55046  21006212.8834         52.2504         40.0004
G31  24791349.3914    2081515.23046   -464736.06444  24791340.9304         40.0004         24.7504
> 2010 04 04 00 00 30.0000000  0 10
G03  25015433.6484   -1543447.14646  -2350291.52943  25015427.5314         37.5004         18.2504
G04  24876523.8594   -4241543.09746  -3278447.89243  24876517.2734         36.0004         19.0004
G06  24969594.656                                                          30.750
G07  23881161.5474   -7241752.34347  -7461604.74444  23881155.1954         44.0004         29.0004
G11  25607183.0084    2837115.32945   2219694.78542  25607181.6374         32.7504         15.5004
G13  22461111.5084  -15273385.24947 -12876123.86545  22461102.6954         45.2504         31.2504
G16  21255559.3054  -20065878.45347 -15333710.14145  21255549.9654         46.2504         34.5004
G20  20359852.2274  -27740206.80448 -21592738.01647  20359842.6524         50.0004         43.2504
G23  20997839.1254  -23750852.07148 -19311698.96846  20997827.6764         53.2504         40.2504
G31  24808480.4454    2171539.20646   -394587.55544  24808471.8094         40.7504         26.0004
> 2010 04 04 00 01 00.0000000  0 10
G03  25000897.3834   -1619840.00846  -2409818.34443  25000889.6844         37.5004         18.2504
G04  24875545.4694   -4246684.17846  -3282453.90142  24875538.8244         36.2504         17.7504
G06  24957669.344     -809685.903 5                                        32.250
G07  23866047.4144   -7321181.41547  -7523497.47245  23866040.5944         44.5004         30.0004
G11  25619039.398     2899413.455 5                                        33.500
G13  22448445.9614  -15339940.21247 -12927984.84845  22448437.2074         45.0004         31.5004
G16  21257747.9224  -20054379.72147 -15324750.08545  21257737.9384         45.0004         35.2504
G20  20364271.6884  -27716982.99448 -21574641.55747  20364261.6454         49.5004         43.0004
G23  20989482.5944  -23794766.25348 -19345917.80646  20989471.2034         53.0004         40.2504
G31  24825599.1564    2261491.57946   -324494.82644  24825589.4064         40.5004         25.5004
> 2010 04 04 00 01 30.0000000  0 10
G03  24986334.9064   -1696357.22045  -2469442.07242  24986328.9654         33.0004         17.7504
G04  24874658.5314   -4251345.97245  -3286086.45443  24874651.4184         33.5004         19.0004
G06  24945734.711     -872401.956 5                                        33.000
G07  23850970.2274   -7400408.24347  -7585232.60144  23850963.7584         44.7504         29.2504
G11  25630855.188     2961499.064 5                                        35.000
G13  22435790.8524  -15406443.85447 -12979805.83345  22435781.6294         46.5004         31.2504
G16  21260053.0084  -20042265.14847 -15315310.14145  21260043.3164         46.2504         35.5004
G20  20368798.2344  -27693193.34348 -21556104.18047  20368788.4844         50.0004         42.5004
G23  20981155.4844  -23838525.99648 -19380016.30746  20981143.9184         52.0004         40.2504
G31  24842702.1954    2351376.44046   -254454.69043  24842693.6174         38.7504         22.7504
> 2010 04 04 00 02 00.0000000  0 10
G03  24971751.0864   -1772996.54945  -2529160.96442  24971745.8484         33.5004         16.7504
G04  24873860.1024   -4255529.98545  -3289346.75643  24873854.9804         31.7504         18.5004
G06  24933793.680     -935162.187 5                                        35.500
G07  23835932.5554   -7479432.85347  -7646810.14944  23835925.7344         45.2504         28.5004
G11  25642628.945     3023369.512 6                                        36.750
G13  22423145.8754  -15472896.24147 -13031586.87845  22423136.3014         46.2504         32.0004
G16  21262475.4144  -20029536.11447 -15305391.40445  21262465.3714         46.7504         34.5004
G20  20373433.1884  -27668838.80648 -21537126.63547  20373423.1454         50.0004         42.0004
G23  20972857.5474  -23882131.01348 -19413994.22746  20972846.2734         53.0004         40.0004
G31  24859793.7664    2441191.61946   -184468.87043  24859784.3674         37.5004         22.0004
> 2010 04 04 00 02 30.0000000  0 10
G03  24957141.3834                                   24957138.3134         28.2504         15.5004
G04  24873154.8754   -4259238.17845  -3292236.27743  24873149.1684         34.5004         18.2504
G06  24921840.797     -997965.225 5                                        32.500
G07  23820932.7194   -7558256.10847  -7708230.80245  23820926.3094         45.5004         30.2504
G11  25654358.742     3085021.631 5                                        34.000
G13  22410510.1954  -15539298.26347 -13083328.69145  22410501.1484         46.5004         33.5004
G16  21265013.9924  -20016194.50747 -15294995.34745  21265004.5354         47.0004         35.0004
G20  20378175.0004  -27643921.49248 -21517710.56247  20378164.9574         49.2504         43.0004
G23  20964588.9694  -23925581.67548 -19447851.88446  20964577.5784         52.7504         40.7504
G31  24876870.9774    2530934.77346   -114539.17543  24876861.8714         37.0004         20.2504
> 2010 04 04 00 03 00.0000000  0  9
G04  24872541.0394   -4262469.75645  -3294754.38643  24872534.2774         33.2504         19.0004
G06  24909882.422    -1060807.502 5                                        32.500
G07  23805971.6724   -7636876.25147  -7769493.16545  23805965.5554         45.0004         30.0004
G11  25666051.297     3146454.945 6                                        37.000
G13  22397884.0084  -15605648.02047 -13135029.75845  22397875.2544         46.5004         33.0004
G16  21267670.0004  -20002239.47547 -15284121.28445  21267659.6054         46.7504         35.2504
G20  20383023.6884  -27618440.40648 -21497855.18047  20383014.1724         49.7504         43.2504
G23  20956350.7974  -23968875.28848 -19481587.16246  20956338.9384         52.7504         39.5004
G31  24893936.0234    2620606.59446    -44665.03843  24893926.1564         36.5004         19.2504
> 2010 04 04 00 03 30.0000000  0 10
G03  24927862.750    -2003631.453 5                                        32.250
G04  24872016.2194   -4265226.01345  -3296902.17043  24872009.8094         33.5004         19.5004
G06  24897916.281    -1123686.638 5                                        32.000
G07  23791048.9144   -7715293.43347  -7830597.41744  23791041.7424         45.0004         27.5004
G11  25677700.336     3207666.864 5                                        35.500
G13  22385267.9844  -15671945.23848 -13186689.90945  22385258.8204         48.0004         33.0004
G16  21270441.8914  -19987671.88847 -15272769.92045  21270431.9654         46.0004         35.0004
G20  20387979.2894  -27592397.25748 -21477561.83647  20387970.1254         50.2504         43.5004
G23  20948142.1334  -24012011.46748 -19515199.76246  20948130.2154         52.7504         40.0004
G31  24910985.7814    2710205.11045     25151.94143  24910976.0904         35.7504         19.7504
> 2010 04 04 00 04 00.0000000  0 10
G03  24913191.703    -2080737.260 5                                        31.750
G04  24871583.9614   -4267507.48846  -3298679.95043  24871575.2074         36.0004         19.7504
G06  24885946.8054   -1186600.07845  -1349395.11143  24885934.1254         34.2504         19.5004
G07  23776165.2194   -7793507.33747  -7891543.25844  23776158.2814         45.0004         27.0004
G11  25689305.367     3268655.631 5                                        35.000
G13  22372661.9454  -15738189.34948 -13238308.66145  22372652.8404         48.0004         33.0004
G16  21273330.6254  -19972492.16047 -15260941.55545  21273320.5824         43.5004         35.5004
G20  20393042.2664  -27565792.31848 -21456830.72547  20393032.8674         49.7504         43.0004
G23  20939964.1174  -24054988.89148 -19548688.65246  20939952.1994         52.5004         40.0004
G31  24928022.5704    2799729.75345     94911.35743  24928013.1724         35.5004         20.7504
> 2010 04 04 00 04 30.0000000  0 10
G03  24898496.180                                                          28.000
G04  24871238.8914   -4269317.33746  -3300090.20843  24871231.5434         36.0004         21.5004
G06  24873968.3524   -1249547.49045  -1398445.04143  24873959.7154         33.5004         18.2504
G07  23761320.5234   -7871519.45047  -7952331.87544  23761311.7704         45.0004         26.0004
G11  25700868.000     3329417.025 5                                        35.250
G13  22360065.9614  -15804382.01148 -13289887.32545  22360056.1524         48.0004         31.7504
G16  21276334.9614  -19956703.04847 -15248638.34945  21276325.5634         44.0004         34.7504
G20  20398211.5864  -27538628.38348 -21435664.03847  20398201.7194         48.7504         43.5004
G23  20931815.3524  -24097808.77248 -19582054.79646  20931803.7854         52.0004         40.5004
G31  24945042.9694    2889176.67045    164610.21443  24945033.9224         35.7504         22.7504
> 2010 04 04 00 05 00.0000000  0 10
G03  24883782.984    -2235278.079 5                                        32.000
G04  24870984.1254   -4270651.21845  -3301129.60443  24870977.5984         34.5004         20.5004
G06  24861985.1484   -1312520.65545  -1447514.99542  24861975.8094         30.2504         16.7504
G07  23746514.1884   -7949324.37747  -8012959.04744  23746505.0824         44.0004         25.2504
G11  25712388.766     3389954.574 5                                        31.000
G13  22347480.6024  -15870517.37148 -13341421.34645  22347471.0274         48.5004         33.0004
G16  21279456.0864  -19940300.40647 -15235857.06845  21279446.9224         45.0004         34.7504
G20  20403487.6254  -27510900.82348 -21414058.16447  20403478.1684         48.7504         43.0004
G23  20923698.2814  -24140464.76948 -19615293.22746  20923686.2464         52.5004         40.0004
G31  24962048.6644    2978550.61345    234252.21743  24962042.0784         34.5004         22.0004
> 2010 04 04 00 05 30.0000000  0  8
G03  24869049.547    -2312698.778 6                                        36.250
G04  24870821.4064   -4271505.94046  -3301795.63043  24870814.8794         39.0004         20.0004
G07  23731748.2274   -8026918.18847  -8073421.71744  23731739.0634         44.2504         26.5004
G13  22334907.2274  -15936591.24247 -13392907.45745  22334897.6524         47.5004         32.2504
G16  21282694.7504  -19923280.83147 -15222595.04345  21282685.3524         46.0004         35.2504
G20  20408871.7584  -27482607.03348 -21392011.07347  20408862.3594         48.2504         43.2504
G23  20915613.1414  -24182952.07748 -19648400.21846  20915601.8094         53.0004         39.7504
G31  24979042.7424    3067853.96245    303839.21643  24979036.3914         35.5004         22.7504
> 2010 04 04 00 06 00.0000000  0  8
G03  24854296.078    -2390228.604 5                                        35.750
G04  24870747.4924   -4271896.30246  -3302099.81543  24870740.4964         37.5004         20.2504
G07  23717020.3834   -8104314.22847  -8133730.24844  23717010.5164         43.0004         26.2504
G13  22322343.3054  -16002616.47048 -13444355.67345  22322333.1454         48.5004         32.7504
G16  21286048.3524  -19905658.73947 -15208863.55345  21286039.0124         46.0004         35.0004
G20  20414360.9304  -27453761.38448 -21369533.95847  20414351.7664         49.5004         43.2504
G23  20907558.0704  -24225283.08048 -19681385.41446  20907545.9774         52.5004         40.7504
G31  24996020.1804    3157072.27645    373359.94643  24996013.7704         33.5004         22.5004
> 2010 04 04 00 06 30.0000000  0  9
G03  24839523.977    -2467857.941 6                                        38.000
G04  24870762.3754   -4271815.54946  -3302036.93343  24870755.6134         37.2504         21.0004
G06  24826003.328                                                          27.500
G07  23702331.5704   -8181504.52147  -8193878.47244  23702322.0554         43.0004         25.7504
G13  22309789.9144  -16068585.00648 -13495759.71345  22309780.1054         48.5004         33.5004
G16  21289517.6254  -19887427.03747 -15194657.03145  21289507.8754         44.0004         35.5004
G20  20419956.4304  -27424356.91748 -21346621.40947  20419946.9144         49.2504         43.7504
G23  20899533.9694  -24267449.13148 -19714242.08046  20899522.2274         51.7504         40.2504
G31  25012982.8054    3246212.03345    442819.42743  25012976.4534         32.0004         19.7504
> 2010 04 04 00 07 00.0000000  0  8
G03  24824733.2734   -2545583.44846  -3131177.54342  24824725.9844         38.7504         17.2504
G04  24870868.8054   -4271264.08046  -3301607.21143  24870860.7544         38.5004         21.0004
G07  23687681.5234   -8258488.06347  -8253865.59244  23687672.8284         42.5004         25.5004
G13  22297247.5164  -16134495.56448 -13547118.57345  22297237.4144         48.5004         33.0004
G16  21293102.9224  -19868586.08847 -15179975.77345  21293093.1724         44.0004         35.0004
G20  20425658.1644  -27394393.90148 -21323273.62047  20425648.8244         49.5004         43.7504
G23  20891541.6564  -24309448.47448 -19746968.83846  20891530.0904         52.5004         40.5004
G31  25029927.9694    3335272.69844    512217.25242  25029924.5474         25.2504         17.2504
> 2010 04 04 00 07 30.0000000  0  7
G03  24809924.8674   -2623404.65246  -3191817.44543  24809917.4024         39.0004         18.2504
G04  24871063.2274   -4270245.01046  -3300813.14843  24871054.8244         40.0004         22.0004
G07  23673071.5474   -8335267.08647  -8313693.33044  23673062.9104         43.7504         27.7504
G13  22284715.6564  -16200349.98647 -13598433.68945  22284706.3164         47.5004         33.5004
G16  21296803.6644  -19849138.87047 -15164822.09345  21296793.9144         43.7504         35.0004
G20  20431466.0084  -27363875.50048 -21299493.07047  20431456.5514         50.0004         43.5004
G23  20883580.9144  -24351282.38648 -19779566.67746  20883569.4064         51.7504         40.2504
> 2010 04 04 00 08 00.0000000  0  7
G03  24795097.0394   -2701317.33646  -3252528.59742  24795091.9774         36.5004         16.7504
G04  24871346.3524   -4268757.67946  -3299654.18343  24871338.7114         37.5004         22.2504
G07  23658499.2114   -8411839.47347  -8373360.05544  23658491.6884         42.5004         27.7504
G13  22272194.6484  -16266145.79548 -13649703.11045  22272185.7774         48.0004         33.2504
G16  21300619.5784  -19829084.58647 -15149195.37445  21300610.1214         44.7504         35.0004
G20  20437379.1804  -27332800.86448 -21275279.08947  20437369.8404         49.0004         43.5004
G23  20875652.1724  -24392948.05448 -19812033.42746  20875640.6054         52.0004         40.2504
> 2010 04 04 00 08 30.0000000  0  9
G03  24780253.6564   -2779323.58746  -3313312.60042  24780246.9534         36.0004         13.7504
G04  24871716.8054   -4266807.67246  -3298134.71343  24871709.6914         38.0004         21.7504
G06  24777985.578                                                          29.250
G07  23643967.2814   -8488209.51247  -8432869.12344  23643958.9964         44.0004         27.7504
G13  22259684.7584  -16331887.22548 -13700930.17145  22259675.5354         48.2504         33.2504
G16  21304549.9384  -19808428.84447 -15133099.97845  21304540.7154         45.5004         34.0004
G20  20443397.2194  -27301175.63148 -21250636.06547  20443387.8794         49.0004         43.5004
G23  20867754.7894  -24434449.10148 -19844371.89846  20867743.2814         52.7504         40.5004
G31  25080681.2584      52802.40145    593082.23843  25080673.0314         34.7504         19.0004
> 2010 04 04 00 09 00.0000000  0  9
G03  24765393.9384   -2857409.98446  -3374159.05442  24765386.4734         36.5004         14.7504
G04  24872176.5164   -4264385.17546  -3296247.07843  24872170.3404         38.5004         22.5004
G06  24765974.211     -269592.761 5                                        30.000
G07  23629475.3674   -8564366.40147  -8492212.08944  23629467.0824         44.2504         28.7504
G13  22247187.0944  -16397562.79548 -13752105.91945  22247177.6954         48.5004         33.5004
G16  21308597.3594  -19787161.70347 -15116528.19145  21308587.7854         46.7504         34.5004
G20  20449522.1334  -27268989.74448 -21225556.18447  20449512.6174         50.0004         44.0004
G23  20859891.1334  -24475773.49948 -19876572.73546  20859879.3914         53.0004         40.5004
G31  25097565.6954     141534.55046    662224.12043  25097557.4694         37.0004         18.2504
> 2010 04 04 00 09 30.0000000  0  9
G03  24750518.1094   -2935579.90046  -3435070.67342  24750511.3484         36.5004         14.7504
G04  24872725.9774   -4261497.34546  -3293996.84643  24872719.8594         39.5004         22.7504
G06  24753964.836     -332707.262 5                                        31.000
G07  23615022.5234   -8640315.77347  -8551393.35244  23615014.4144         44.5004         29.5004
G13  22234700.8754  -16463177.74948 -13803234.43645  22234691.2424         48.2504         33.0004
G16  21312759.3364  -19765289.93547 -15099485.25645  21312749.3524         45.7504         34.5004
G20  20455752.0394  -27236250.61748 -21200045.18647  20455742.7584         50.7504         43.5004
G23  20852060.2194  -24516926.12648 -19908639.70646  20852048.3594         53.5004         41.0004
G31  25114435.0474     230182.29546    731300.26842  25114426.9384         38.2504         16.7504
> 2010 04 04 00 10 00.0000000  0  9
G03  24735627.8834   -3013832.53846  -3496046.67342  24735621.0634         37.5004         15.5004
G04  24873364.4694   -4258146.58546  -3291385.88443  24873357.2974         40.5004         22.0004
G06  24741956.469     -395825.623 5                                        33.500
G07  23600608.7584   -8716059.15247  -8610414.12445  23600601.2934         45.0004         30.5004
G13  22222226.2894  -16528733.11048 -13854316.52145  22222216.6564         48.0004         33.7504
G16  21317036.1484  -19742815.99147 -15081973.09945  21317026.6914         45.5004         34.0004
G20  20462087.2114  -27202960.47148 -21174104.84247  20462077.8134         49.2504         43.2504
G23  20844261.4534  -24557907.38548 -19940573.15146  20844250.0634         53.0004         40.7504
G31  25131287.2114     318743.23246    800308.89542  25131279.0434         40.0004         16.2504
> 2010 04 04 00 10 30.0000000  0 10
G03  24720721.9614   -3092167.11446  -3557086.58142  24720714.6724         38.7504         16.2504
G04  24874089.1254   -4254336.07146  -3288416.66843  24874082.3054         41.2504         22.0004
G06  24729946.195     -458947.430 5                                        35.000
G07  23586234.9144   -8791597.90747  -8669275.41144  23586226.7464         45.7504         29.7504
G11  25836158.469      -24583.228 5                                        32.250
G13  22209762.6954  -16594229.95147 -13905352.99645  22209753.1804         47.5004         33.5004
G16  21321426.8284  -19719742.87247 -15063994.04645  21321416.9024         45.5004         35.0004
G20  20468526.0554  -27169122.37248 -21147737.51347  20468516.5984         50.2504         43.2504
G23  20836495.6484  -24598718.00048 -19972373.62646  20836484.2584         52.5004         41.0004
G31  25148122.1724     407214.12146    869247.35942  25148113.0084         39.5004         15.5004
> 2010 04 04 00 11 00.0000000  0 10
G03  24705801.5084   -3170571.23546  -3618180.66943  24705795.3914         39.0004         18.5004
G04  24874903.5704   -4250057.46246  -3285082.68243  24874896.6334         38.7504         22.0004
G06  24717936.109     -522060.707 5                                        35.000
G07  23571900.7734   -8866922.82447  -8727970.11245  23571893.4844         45.2504         30.5004
G11  25847134.898       33091.761 5                                        35.500
G13  22197311.8524  -16659658.33848 -13956336.13945  22197302.8054         48.2504         33.7504
G16  21325933.7274  -19696062.04847 -15045541.45545  21325923.4494         45.5004         34.2504
G20  20475071.3444  -27134727.91548 -21120936.65247  20475061.8284         50.0004         43.2504
G23  20828764.2344  -24639347.46548 -20004032.94846  20828752.2584         53.0004         40.7504
G31  25164943.2274     495603.89146    938122.54242  25164933.6524         41.0004         17.2504
> 2010 04 04 00 11 30.0000000  0 10
G03  24690868.8364   -3249048.07346  -3679331.39642  24690862.3674         38.7504         16.7504
G04  24875806.3524   -4245316.99646  -3281388.83543  24875799.3554         39.7504         21.7504
G06  24705927.359     -585168.049 6                                        36.250
G07  23557606.6804   -8942038.70547  -8786501.90945  23557599.3914         46.2504         31.2504
G11  25858061.719       90516.857 5                                        34.500
G13  22184873.1254  -16725023.16447 -14007269.73745  22184864.7814         47.7504         33.7504
G16  21330554.0314  -19671779.90647 -15026620.31545  21330544.3984         46.5004         33.5004
G20  20481721.0474  -27099783.69948 -21093707.41547  20481711.3554         50.7504         43.0004
G23  20821066.4924  -24679799.93248 -20035554.34046  20821054.5744         52.7504         40.0004
G31  25181745.1094     583906.07046   1006929.42543  25181737.4104         40.7504         21.0004
> 2010 04 04 00 12 00.0000000  0 10
G03  24675921.3524   -3327594.33446  -3740536.27842  24675914.1214         38.5004         16.2504
G04  24876795.5634   -4240115.60546  -3277335.84643  24876789.4454         41.0004         22.7504
G06  24693919.703     -648266.642 5                                        34.500
G07  23543352.0234   -9016944.93447  -8844870.36445  23543344.6174         46.0004         31.0004
G11  25868943.375      147690.425 5                                        33.500
G13  22172447.0394  -16790322.90247 -14058152.61945  22172438.9304         47.7504         34.0004
G16  21335289.2194  -19646897.12547 -15007231.13145  21335278.9414         46.0004         34.0004
G20  20488474.9774  -27064289.91448 -21066049.93847  20488465.7544         50.5004         43.2504
G23  20813402.2114  -24720073.96348 -20066936.69446  20813390.6454         52.5004         40.5004
G31  25198532.6024     672120.03246   1075667.54543  25198524.2584         39.7504         22.7504
> 2010 04 04 00 12 30.0000000  0 10
G03  24660963.3754   -3406207.92546  -3801793.54942  24660954.7974         40.0004         17.2504
G04  24877872.0234   -4234454.80946  -3272924.86643  24877866.9614         39.0004         22.0004
G06  24681914.250     -711353.940 5                                        35.000
G07  23529138.1024   -9091641.72047  -8903075.59145  23529130.6954         46.0004         31.7504
G11  25879775.656      204610.230 4                                        29.250
G13  22160033.2894  -16855557.76247 -14108984.95645  22160024.5944         47.7504         34.5004
G16  21340137.7814  -19621415.02547 -14987374.94845  21340128.3834         43.7504         34.7504
G20  20495333.6024  -27028248.21748 -21037965.51447  20495324.2624         51.2504         42.5004
G23  20805772.4064  -24760168.68348 -20098179.33246  20805761.1914         52.0004         40.7504
G31  25215303.1954     760244.56346   1144336.02243  25215293.9144         40.0004         22.0004
> 2010 04 04 00 13 00.0000000  0  9
G03  24645991.1024   -3484880.36646  -3863096.73442  24645982.7584         36.0004         16.7504
G04  24879037.1804   -4228330.43046  -3268152.63443  24879031.5314         39.5004         20.7504
G06  24669912.359     -774422.194 5                                        35.750
G07  23514965.0234   -9166123.71947  -8961113.46745  23514956.7974         47.0004         31.2504
G13  22147633.6024  -16920721.49647 -14159761.87145  22147624.3204         47.7504         33.2504
G16  21345102.5084  -19595329.54447 -14967048.59945  21345091.9964         44.5004         34.2504
G20  20502297.1724  -26991654.43248 -21009450.89447  20502287.7734         50.5004         43.2504
G23  20798177.8914  -24800077.78448 -20129277.32646  20798166.3834         52.5004         40.7504
G31  25232057.2894     848284.07146   1212938.22143  25232046.4844         38.2504         21.7504
> 2010 04 04 00 13 30.0000000  0  9
G03  24631006.7344   -3563618.60845  -3924451.15342  24630998.9184         34.5004         16.2504
G04  24880289.2194   -4221752.91546  -3263027.33843  24880282.7504         39.7504         19.2504
G06  24657912.6724    -837477.82745  -2065020.66142  24657906.4964         34.2504         17.2504
G07  23500830.6644   -9240399.96847  -9018991.02645  23500822.0274         46.7504         31.5004
G13  22135244.9144  -16985822.53547 -14210489.93845  22135235.7504         47.2504         33.5004
G16  21350179.0784  -19568650.94647 -14946260.07645  21350168.7424         45.0004         34.2504
G20  20509363.9304  -26954519.05748 -20980514.25147  20509354.3554         51.0004         42.7504
G23  20790617.5704  -24839809.02648 -20160236.72546  20790605.3014         53.0004         40.7504
G31  25248791.9534     936228.46746   1281466.27643  25248782.3204         36.5004         22.7504
> 2010 04 04 00 14 00.0000000  0  9
G03  24616012.1414   -3642415.83745  -3985851.52942  24616004.0904         32.5004         13.7504
G04  24881628.6024   -4214718.95246  -3257546.34043  24881620.4924         39.5004         19.5004
G06  24645917.2274    -900513.95446  -2114139.64742  24645911.4614         36.7504         16.2504
G07  23486735.5474   -9314465.82947  -9076704.62544  23486727.4964         46.0004         29.7504
G13  22122869.0864  -17050855.67848 -14261165.09345  22122860.1564         48.2504         33.0004
G16  21355369.2424  -19541375.84047 -14925006.73845  21355359.2584         45.5004         34.2504
G20  20516533.9924  -26916838.92348 -20951153.12147  20516524.6524         50.5004         42.0004
G23  20783091.8054  -24879356.97448 -20191053.29746  20783079.8284         52.5004         40.2504
G31  25265509.6024    1024081.20845   1349922.95643  25265499.6174         33.2504         19.0004
> 2010 04 04 00 14 30.0000000  0  9
G03  24601005.2034                                   24601000.1994         30.0004         13.7504
G04  24883054.5944   -4207227.40846  -3251708.77843  24883045.8984         40.5004         20.2504
G06  24633925.6094    -963525.25746  -2163239.37442  24633919.7854         36.0004         15.5004
G07  23472682.5394   -9388318.57347  -9134252.17645  23472674.4304         47.0004         32.0004
G13  22110507.5944  -17115817.73947 -14311784.87045  22110498.4884         47.5004         33.5004
G16  21360673.1484  -19513502.92447 -14903287.58345  21360663.0474         45.5004         34.5004
G20  20523808.5704  -26878612.55548 -20921366.37147  20523798.9964         50.7504         42.2504
G23  20775601.4844  -24918717.67948 -20221723.98146  20775589.9184         52.5004         41.0004
G31  25282209.9384                                   25282200.3634         28.7504         16.7504
> 2010 04 04 00 15 00.0000000  0  8
G03  24585992.3984   -3800170.69745  -4108777.15842  24585986.6914         32.2504         16.2504
G04  24884566.8134   -4199281.90246  -3245517.46243  24884557.1214         40.7504         19.2504
G06  24621939.9844   -1026511.88846  -2212319.78442  24621934.2194         37.0004         17.2504
G07  23458668.4924   -9461960.35247  -9191635.32045  23458660.4414         46.2504         30.5004
G13  22098158.3594  -17180710.77647 -14362350.85845  22098149.7234         47.7504         33.7504
G16  21366090.3674  -19485035.88347 -14881105.47345  21366080.7344         44.7504         33.0004
G20  20531185.8984  -26839843.68248 -20891156.87247  20531176.3834         50.0004         42.0004
G23  20768146.9144  -24957892.75248 -20252250.00146  20768135.4654         52.2504         41.0004
> 2010 04 04 00 15 30.0000000  0  8
G03  24570967.9144   -3879125.91645  -4170300.72943  24570962.9694         34.7504         18.5004
G04  24886164.3204   -4190884.55946  -3238974.14643  24886156.1524         38.0004         18.5004
G06  24609958.2814   -1089471.72546  -2261379.34742  24609953.5124         37.5004         16.2504
G07  23444694.4774   -9535392.26947  -9248854.94145  23444687.7154         46.0004         31.0004
G13  22085822.8524  -17245534.75347 -14412863.02745  22085814.1564         47.2504         34.2504
G16  21371620.1094  -19455976.86447 -14858462.08345  21371609.8914         45.0004         34.0004
G20  20538666.5004  -26800534.34348 -20860526.24047  20538656.9844         50.5004         42.5004
G23  20760727.5164  -24996881.58448 -20282630.90446  20760715.7734         53.0004         40.7504
> 2010 04 04 00 16 00.0000000  0  9
G03  24555933.0314   -3958133.61445  -4231865.09542  24555927.7934         34.2504         17.7504
G04  24887847.2814   -4182040.09346  -3232082.37543  24887839.7584         39.0004         19.2504
G06  24597982.9844   -1152405.54846  -2310418.64342  24597977.8054         36.7504         16.2504
G07  23430760.6334   -9608617.53747  -9305913.53745  23430753.3444         46.2504         31.0004
G13  22073499.8754  -17310292.11148 -14463323.28745  22073491.3554         48.2504         33.7504
G16  21377261.4614  -19426330.32847 -14835360.88345  21377251.4774         44.5004         34.2504
G20  20546248.6174  -26760689.15148 -20829478.05547  20546239.1604         50.2504         42.5004
G23  20753343.2424  -25035686.33348 -20312868.37146  20753331.4414         52.7504         40.2504
G31  25332204.1724      11734.42745   1510745.63543  25332193.3674         33.0004         20.0004
> 2010 04 04 00 16 30.0000000  0  9
G03  24540891.9304   -4037179.56346  -4293459.29942  24540884.5824         37.5004         17.7504
G04  24889616.4924   -4172738.91446  -3224834.73543  24889610.1994         39.0004         19.5004
G06  24586014.2734   -1215300.04045  -2359427.25342  24586007.9224         34.0004         15.5004
G07  23416867.6174   -9681624.98247  -9362802.40845  23416859.8594         46.5004         30.5004
G13  22061192.5394  -17374971.36148 -14513722.68245  22061182.9064         48.5004         33.5004
G16  21383016.7584  -19396086.91847 -14811794.59445  21383006.4804         44.0004         33.5004
G20  20553934.7664  -26720298.53848 -20798004.86547  20553925.4264         50.5004         42.7504
G23  20745996.3284  -25074294.89648 -20342952.96546  20745984.7624         52.2504         40.7504
G31  25348832.5944      99120.37045   1578838.53543  25348823.3134         34.2504         19.2504
> 2010 04 04 00 17 00.0000000  0  9
G03  24525841.3204   -4116267.76645  -4355086.43243  24525834.2074         35.5004         18.2504
G04  24891472.1174   -4162988.98446  -3217237.42343  24891465.4144         39.0004         19.0004
G06  24574054.3914   -1278158.88745  -2408408.33542  24574042.6484         35.5004         13.7504
G07  23403015.3444   -9754420.78947  -9419526.37345  23403006.8244         46.5004         30.7504
G13  22048897.8834  -17439578.35248 -14564065.77245  22048888.6024         48.7504         33.5004
G16  21388883.6484  -19365254.22647 -14787769.11845  21388873.4884         43.2504         33.7504
G20  20561723.0004  -26679370.62048 -20766112.99847  20561713.5434         51.0004         42.5004
G23  20738685.6094  -25112712.93448 -20372889.09146  20738673.8094         52.5004         41.0004
G31  25365442.8754     186409.66146   1646856.09143  25365433.8874         36.7504         21.2504
> 2010 04 04 00 17 30.0000000  0  9
G03  24510783.8364   -4195395.03745  -4416744.02042  24510776.3134         35.0004         16.7504
G04  24893413.4694   -4152790.84946  -3209290.84043  24893405.0664         40.0004         19.0004
G06  24562100.0634   -1340979.04646  -2457358.95942  24562088.4964         37.0004         15.5004
G07  23389203.2034   -9827004.85447  -9476085.31645  23389194.9184         46.7504         31.0004
G13  22036617.6724  -17504111.52647 -14614351.34145  22036607.6884         47.2504         33.7504
G16  21394862.9774  -19333833.09947 -14763285.12545  21394853.1684         45.0004         33.7504
G20  20569613.5864  -26637905.87748 -20733802.82947  20569604.1294         49.0004         42.5004
G23  20731411.5234  -25150938.46848 -20402675.22646  20731399.6054         52.5004         40.5004
G31  25382034.8914     273602.01646   1714798.16943  25382026.0204         36.5004         22.5004
> 2010 04 04 00 18 00.0000000  0  9
G03  24495719.5234   -4274558.52845  -4478429.82742  24495711.8244         35.2504         17.7504
G04  24895438.6564   -4142145.97246  -3200996.15443  24895430.6644         38.5004         20.2504
G06  24550152.5704   -1403757.56745  -2506277.30942  24550143.6414         35.5004         15.5004
G07  23375430.2894   -9899376.66447  -9532478.89645  23375423.2934         46.5004         30.0004
G13  22024351.7344  -17568570.10247 -14664578.78445  22024342.0434         47.2504         33.5004
G16  21400954.1024  -19301824.77347 -14738343.57645  21400944.6454         44.0004         34.2504
G20  20577605.8284  -26595905.50048 -20701075.27647  20577596.6054         48.5004         42.5004
G23  20724174.3674  -25188970.08748 -20432310.25146  20724162.6254         52.2504         41.0004
G31  25398609.4064     360696.52346   1782663.99343  25398599.5984         38.2504         22.7504
> 2010 04 04 00 18 30.0000000  0  9
G03  24480647.8914   -4353754.77345  -4540141.11742  24480641.9494         34.7504         17.7504
G04  24897549.2344   -4131054.97946  -3192353.81943  24897541.3014         39.2504         19.0004
G06  24538216.2274   -1466490.89545  -2555160.31342  24538207.9414         35.0004         17.2504
G07  23361698.9454   -9971534.99847  -9588706.11545  23361691.6564         45.7504         32.5004
G13  22012099.9774  -17632952.49247 -14714746.86345  22012090.5204         47.5004         33.7504
G16  21407156.7344  -19269229.65647 -14712944.77645  21407146.8674         43.7504         33.0004
G20  20585700.1724  -26553370.09348 -20667930.83647  20585690.7154         51.0004         43.0004
G23  20716974.5084  -25226805.61448 -20461792.47946  20716963.1174         52.0004         41.2504
G31  25415163.9144     447693.49846   1850453.83043  25415154.6334         38.7504         22.7504
> 2010 04 04 00 19 00.0000000  0  9
G03  24465571.2664   -4432980.55246  -4601875.39442  24465566.6134         36.0004         17.7504
G04  24899743.9694   -4119519.22046  -3183364.96043  24899736.3284         38.7504         19.5004
G06  24526286.9304   -1529176.62345  -2604006.25142  24526279.6994         33.5004         15.5004
G07  23348009.1484  -10043480.05147  -9644767.15045  23348000.8634         46.0004         31.2504
G13  21999862.8054  -17697257.84648 -14764854.91445  21999853.2304         48.0004         34.7504
G16  21413470.8594  -19236049.14247 -14687089.83445  21413461.1094         46.0004         34.0004
G20  20593896.0474  -26510301.03348 -20634370.55147  20593887.1764         49.7504         42.5004
G23  20709811.8134  -25264443.79148 -20491120.92446  20709800.2464         52.0004         41.0004
G31  25431700.1024     534592.28746   1918167.15343  25431691.4654         39.2504         21.7504
> 2010 04 04 00 19 30.0000000  0  9
G03  24450491.1724   -4512233.91946  -4663631.19443  24450485.7584         38.2504         18.5004
G04  24902023.5634   -4107540.29046  -3174030.75243  24902015.8054         37.2504         20.2504
G06  24514366.8984   -1591812.36545  -2652813.22743  24514360.4304         31.2504         18.2504
G07  23334358.6024  -10115212.23047  -9700662.29045  23334350.4924         46.0004         32.2504
G13  21987640.9304  -17761485.88147 -14814902.71445  21987631.1214         47.7504         34.0004
G16  21419896.0474  -19202285.34947 -14660780.37345  21419886.0044         45.5004         33.5004
G20  20602192.7274  -26466700.51448 -20600396.13747  20602183.7974         50.5004         42.2504
G23  20702687.3204  -25301884.08448 -20520295.17046  20702675.7544         51.5004         40.7504
G31  25448216.8054     621391.62146   1985803.00743  25448208.6374         39.0004         19.7504
> 2010 04 04 00 20 00.0000000  0  9
G03  24435404.6724   -4591511.61946  -4725405.92743  24435399.9614         38.5004         18.5004
G04  24904387.2734   -4095119.04846  -3164351.88443  24904380.0434         40.0004         19.0004
G06  24502458.7974   -1654394.78445  -2701578.67942  24502450.9224         34.5004         17.7504
G07  23320749.5004  -10186730.78547  -9756391.00345  23320740.3954         47.0004         32.0004
G13  21975433.7664  -17825634.90848 -14864888.95545  21975424.1914         48.7504         35.0004
G16  21426432.2274  -19167938.71647 -14634016.78245  21426422.0084         46.5004         34.0004
G20  20610590.8834  -26422568.89348 -20566007.88547  20610581.4844         50.0004         42.5004
G23  20695600.9774  -25339124.23748 -20549313.48546  20695589.0594         52.0004         41.7504
G31  25464715.5314     708091.19646   2053361.13643  25464707.2464         39.0004         18.2504
> 2010 04 04 00 20 30.0000000  0  9
G03  24420315.0004   -4670810.71946  -4787197.38743  24420309.3524         39.2504         19.2504
G04  24906834.8284   -4082257.61346  -3154330.01143  24906828.2424         39.0004         18.5004
G06  24490559.5784   -1716921.61845  -2750300.88442  24490551.6454         33.5004         17.7504
G07  23307180.4304  -10258035.97047  -9811953.43145  23307171.2074         46.2504         32.5004
G13  21963241.5634  -17889704.60648 -14914813.35945  21963232.3984         48.2504         34.2504
G16  21433077.8754  -19133011.23547 -14606800.55745  21433068.5944         46.0004         34.0004
G20  20619089.5634  -26377907.98248 -20531207.19246  20619080.1054         50.7504         41.7504
G23  20688552.5864  -25376163.52948 -20578175.26446  20688540.8444         51.7504         41.0004
G31  25481193.7734     794690.04346   2120840.79242  25481187.1884         37.5004         17.7504
> 2010 04 04 00 21 00.0000000  0  9
G03  24405221.7194   -4750128.14246  -4849003.08143  24405214.7234         40.2504         19.7504
G04  24909366.5944   -4068956.62246  -3143965.60743  24909359.1294         39.5004         19.7504
G06  24478670.9694   -1779389.48744  -2798977.07042  24478664.1484         28.7504         16.7504
G07  23293652.2894  -10329126.93647  -9867348.93745  23293643.3014         47.2504         32.2504
G13  21951064.7424  -17953693.58047 -14964674.87445  21951055.2274         47.7504         34.7504
G16  21439834.7664  -19097503.53647 -14579132.22845  21439825.0164         45.0004         33.5004
G20  20627688.7034  -26332718.70248 -20495994.78147  20627679.2464         51.0004         42.7504
G23  20681542.8284  -25413000.76448 -20606879.60746  20681530.9694         51.7504         40.5004
G31  25497653.3524     881188.03246   2188241.83542  25497647.5864         36.0004         15.5004
> 2010 04 04 00 21 30.0000000  0  9
G03  24390125.5004   -4829461.05746  -4910820.89143  24390118.7974         41.0004         18.5004
G04  24911981.0164   -4055217.63946  -3133259.92143  24911974.0784         41.7504         20.0004
G06  24466795.9774   -1841795.95344  -2847605.43142  24466788.6884         29.5004         14.7504
G07  23280164.6484  -10400003.90147  -9922577.71645  23280156.2464         47.0004         31.7504
G13  21938903.8054  -18017601.01547 -15014472.84845  21938894.2304         47.5004         34.2504
G16  21446701.8134  -19061417.52147 -14551013.24545  21446691.9454         46.0004         34.2504
G20  20636388.3364  -26287002.79748 -20460372.02546  20636378.8794         50.5004         41.7504
G23  20674571.4694  -25449633.85548 -20635424.87046  20674559.8444         51.0004         40.7504
G31  25514093.7344     967584.17445   2255563.54742  25514087.3244         35.5004         16.7504
> 2010 04 04 00 22 00.0000000  0  9
G03  24375025.7814   -4908806.66746  -4972648.63543  24375019.0784         40.2504         19.7504
G04  24914677.8834   -4041042.26846  -3122214.21243  24914670.1254         40.7504         19.7504
G06  24454932.7584   -1904138.25745  -2896183.67142  24454924.4734         33.5004         15.5004
G07  23266717.3524  -10470666.90947  -9977639.74845  23266709.4774         46.5004         33.0004
G13  21926758.3594  -18081426.30847 -15064206.82645  21926748.9024         47.5004         35.7504
G16  21453678.1804  -19024754.67847 -14522444.80945  21453668.8984         45.2504         34.0004
G20  20645187.7814  -26240761.73448 -20424340.05447  20645178.5004         51.0004         42.7504
G23  20667639.6024  -25486061.32048 -20663809.90746  20667628.2704         51.2504         41.0004
G31  25530515.8054    1053877.84445   2322805.39142  25530508.6334         34.2504         16.2504
> 2010 04 04 00 22 30.0000000  0  9
G03  24359924.7504   -4988161.84046  -5034483.78043  24359918.1644         39.5004         19.0004
G04  24917459.1024   -4026431.63546  -3110829.31043  24917450.2304         40.2504         19.0004
G06  24443081.8284   -1966413.00045  -2944709.42542  24443075.1844         31.7504         17.2504
G07  23253311.7664  -10541115.04647 -10032534.35845  23253304.0084         46.5004         33.5004
G13  21914628.4614  -18145167.65247 -15113875.38545  21914619.2974         47.5004         35.0004
G16  21460765.0394  -18987516.05347 -14493427.69645  21460755.3484         46.5004         33.2504
G20  20654086.9924  -26193996.56348 -20387899.68347  20654077.4774         51.0004         42.0004
G23  20660747.2114  -25522281.90248 -20692033.73946  20660735.2934         52.0004         41.2504
G31  25546919.1174    1140068.87745   2389967.25342  25546909.0744         33.5004         16.7504
> 2010 04 04 00 23 00.0000000  0  9
G03  24344822.5554   -5067524.15546  -5096324.57242  24344816.2034         38.0004         16.7504
G04  24920321.3204   -4011387.65046  -3099106.77443  24920313.6804         38.7504         19.2504
G06  24431244.4144   -2028618.35545  -2993181.01942  24431238.5314         33.7504         17.7504
G07  23239946.8524  -10611349.09147 -10087262.13845  23239938.0394         46.2504         33.5004
G13  21902514.9224  -18208824.98347 -15163478.46345  21902505.8754         47.7504         34.5004
G16  21467960.5634  -18949703.62247 -14463963.47645  21467950.9304         46.0004         34.0004
G20  20663085.2194  -26146709.15248 -20351052.38147  20663076.0554         51.0004         42.2504
G23  20653894.0394  -25558294.45648 -20720095.45346  20653882.3554         51.5004         40.5004
G31  25563299.9694    1226155.89245   2457047.98342  25563290.5124         30.5004         16.2504
> 2010 04 04 00 23 30.0000000  0  9
G03  24329719.4534   -5146891.07746  -5158168.80142  24329711.7544         36.0004         16.2504
G04  24923266.9224   -3995912.12646  -3087047.98743  24923258.8714         40.5004         19.2504
G06  24419422.4224   -2090751.64745  -3041596.52142  24419414.6054         33.0004         16.2504
G07  23226622.5704  -10681369.25947 -10141823.26545  23226613.8164         46.7504         33.0004
G13  21890417.2424  -18272397.40147 -15213015.39145  21890408.5474         46.2504         35.2504
G16  21475264.5554  -18911319.21147 -14434053.55345  21475255.5664         46.0004         34.7504
G20  20672182.7664  -26098901.37848 -20313799.59147  20672173.6024         51.0004         42.2504
G23  20647080.6094  -25594098.38548 -20747994.61646  20647068.9264         50.2504         41.0004
G31  25579662.7504    1312137.80545   2524046.85842  25579653.6454         31.2504         17.2504
> 2010 04 04 00 24 00.0000000  0  9
G03  24314614.9224   -5226259.59846  -5220014.37842  24314608.4534         36.5004         16.2504
G04  24926294.1094   -3980006.61946  -3074654.06443  24926285.7664         40.0004         19.0004
G06  24407613.0784   -2152809.90345  -3089953.58642  24407604.5004         33.2504         15.5004
G07  23213338.5164  -10751175.42847 -10196217.64245  23213329.2344         45.0004         32.5004
G13  21878336.3134  -18335883.60147 -15262485.12845  21878327.2074         47.5004         34.0004
G16  21482677.7664  -18872364.49747 -14403699.21945  21482667.7234         46.0004         33.2504
G20  20681378.9224  -26050574.70748 -20276142.46446  20681369.5234         50.0004         41.5004
G23  20640307.3444  -25629692.21148 -20775730.05646  20640295.7774         51.0004         40.7504
G31  25596003.7344    1398014.41144   2590963.69842  25595995.1564         29.0004         16.7504
> 2010 04 04 00 24 30.0000000  0  9
G03  24299514.4844   -5305618.43046  -5281852.40242  24299507.0784         37.5004         16.7504
G04  24929402.7584   -3963664.29146  -3061919.78743  24929396.5234         38.7504         18.2504
G06  24395820.8054   -2214782.25945  -3138243.64242  24395811.8164         33.2504         17.7504
G07  23200096.8754  -10820759.09647 -10250438.64345  23200088.3554         44.7504         33.2504
G13  21866273.7034  -18399275.20748 -15311881.17245  21866264.3054         48.0004         35.5004
G16  21490200.1804  -18832832.40347 -14372895.00145  21490190.7814         45.5004         34.0004
G20  20690675.2424  -26001722.50848 -20238075.84847  20690666.2544         49.7504         42.7504
G23  20633575.7424  -25665066.00048 -20803294.05346  20633564.6454         50.5004         41.2504
G31  25612329.1174                                   25612318.3714         28.5004         16.2504
> 2010 04 04 00 25 00.0000000  0  9
G03  24284413.7664   -5384978.26846  -5343691.18843  24284406.4774         38.2504         18.2504
G04  24932592.6804   -3946900.19846  -3048856.92842  24932586.2704         40.0004         17.7504
G06  24384042.0084   -2276679.60445  -3186475.28343  24384033.3134         34.7504         19.2504
G07  23186895.5314  -10890133.91347 -10304496.89745  23186886.4264         44.0004         32.5004
G13  21854226.2734  -18462584.42747 -15361213.00845  21854216.9344         46.5004         35.5004
G16  21497830.5394  -18792738.05747 -14341652.65745  21497820.7894         46.0004         34.0004
G20  20700068.8524  -25952360.00548 -20199611.57447  20700059.1604         49.0004         42.5004
G23  20626884.1644  -25700232.18148 -20830696.25646  20626872.4224         49.5004         41.5004
G31  25628630.1644                                   25628620.7074         29.5004         16.2504
> 2010 04 04 00 25 30.0000000  0  9
G03  24269313.0704   -5464329.27146  -5405523.10142  24269305.9574         37.0004         16.7504
G04  24935864.4144   -3929709.55346  -3035461.61042  24935857.4774         38.7504         17.2504
G06  24372277.4774   -2338492.50645  -3234641.10643  24372272.1214         34.0004         18.5004
G07  23173735.0004  -10959293.00647 -10358387.06845  23173726.5984         44.2504         33.0004
G13  21842195.8984  -18525803.50547 -15410474.62445  21842186.5004         46.5004         35.2504
G16  21505567.4844  -18752077.00147 -14309968.72645  21505557.4414         46.0004         33.5004
G20  20709560.2664  -25902481.92248 -20160745.56547  20709551.3364         49.2504         42.5004
G23  20620233.6024  -25735182.68048 -20857930.40746  20620221.6844         50.7504         41.0004
G31  25644912.6414                                   25644902.2464         33.0004         18.2504
> 2010 04 04 00 26 00.0000000  0  9
G03  24254212.6174   -5543675.88945  -5467351.63242  24254206.9694         35.7504         17.2504
G04  24939215.5394   -3912100.40546  -3021740.26142  24939207.7234         40.0004         17.2504
G06  24360530.6254   -2400224.81546  -3282744.12543  24360525.2704         37.0004         20.5004
G07  23160613.9694  -11028243.27647 -10412114.50845  23160606.1524         44.5004         32.7504
G13  21830181.5554  -18588938.25248 -15459670.50645  21830172.4494         48.2504         35.2504
G16  21513411.6024  -18710857.47047 -14277849.61145  21513401.9104         45.7504         33.5004
G20  20719147.9844  -25852096.73148 -20121484.40447  20719139.1134         49.5004         42.2504
G23  20613622.3204  -25769922.79848 -20885000.62946  20613611.1054         50.5004         40.5004
G31  25661170.5944    1740469.82345   2857811.93343  25661162.1914         35.5004         19.2504
> 2010 04 04 00 26 30.0000000  0  9
G03  24239118.3284   -5623001.98146  -5529164.11842  24239111.6844         36.5004         17.7504
G04  24942647.3984   -3894061.57846  -3007684.00942  24942639.4064         38.2504         16.7504
G06  24348800.1804   -2461861.01245  -3330772.30343  24348795.8204         35.0004         19.5004
G07  23147535.4304  -11096971.52047 -10465668.95145  23147527.4384         44.0004         32.5004
G13  21818186.0004  -18651974.79747 -15508789.86745  21818176.7774         47.2504         35.2504
G16  21521363.2344  -18669068.10047 -14245286.48845  21521354.0704         46.2504         33.5004
G20  20728834.7194  -25801193.44748 -20081819.53047  20728825.9654         49.7504         42.0004
G23  20607054.5864  -25804438.15548 -20911895.70946  20607042.8444         50.2504         41.0004
G31  25677412.1414    1825816.55845   2924315.87243  25677403.8554         35.0004         20.5004
> 2010 04 04 00 27 00.0000000  0  9
G03  24224025.9304   -5702308.49846  -5590961.36442  24224021.1604         36.7504         16.7504
G04  24946161.4224   -3875598.68546  -2993297.40742  24946152.4344         39.0004         15.5004
G06  24337089.3204   -2523402.16645  -3378726.35343  24337084.3754         35.5004         19.0004
G07  23134498.6724  -11165481.56447 -10519053.36545  23134490.2114         45.0004         33.7504
G13  21806208.8444  -18714915.93947 -15557834.89845  21806199.7384         46.5004         35.5004
G16  21529423.3914  -18626714.14447 -14212283.40945  21529413.9924         47.0004         33.2504
G20  20738618.9844  -25749777.34248 -20041755.05746  20738609.9964         49.5004         41.7504
G23  20600528.6884  -25838731.35248 -20938617.68546  20600516.8874         49.5004         41.0004
G31  25693632.4774    1911058.24745   2990737.93443  25693623.7814         34.5004         20.5004
> 2010 04 04 00 27 30.0000000  0  9
G03  24208937.5784   -5781597.51546  -5652744.91442  24208933.2774         36.5004         16.7504
G04  24949754.3444   -3856718.11146  -2978585.27242  24949745.6484         40.0004         16.7504
G06  24325396.7894   -2584850.24945  -3426607.90643  24325391.1994         34.2504         20.0004
G07  23121501.8834  -11233778.74547 -10572271.91845  23121493.4804         45.2504         33.5004
G13  21794249.2424  -18777765.54148 -15606808.59645  21794240.1374         48.5004         35.7504
G16  21537588.9694  -18583802.37047 -14178845.66845  21537579.5124         46.0004         33.0004
G20  20748499.4224  -25697854.77648 -20001295.93847  20748490.4344         49.5004         42.5004
G23  20594044.3984  -25872805.84548 -20965169.23046  20594033.0664         50.5004         41.7504
G31  25709832.2504    1996189.30045   3057073.80643  25709823.7894         34.5004         21.2504
> 2010 04 04 00 28 00.0000000  0  9
G03  24193852.1094   -5860863.29845  -5714510.38142  24193849.3324         35.2504         17.2504
G04  24953427.0784   -3837419.33046  -2963547.32542  24953418.7934         41.0004         17.7504
G06  24313722.4144   -2646200.37545  -3474413.16643  24313717.1764         35.5004         19.7504
G07  23108546.2114  -11301860.01947 -10625322.23645  23108538.1024         43.5004         32.7504
G13  21782306.8834  -18840520.38647 -15655708.45845  21782298.1294         47.2504         35.7504
G16  21545860.8674  -18540332.53147 -14144973.07245  21545851.9964         46.0004         34.0004
G20  20758476.6484  -25645425.41048 -19960441.91247  20758467.4844         49.0004         42.2504
G23  20587602.6804  -25906657.98348 -20991547.52147  20587591.4654         51.0004         42.0004
G31  25726010.7194    2081210.98245   3123324.46043  25726002.3164         35.0004         21.2504
> 2010 04 04 00 28 30.0000000  0  9
G03  24178775.0084   -5940103.90846  -5776256.22842  24178769.7704         37.5004         16.7504
G04  24957179.0234   -3817704.62446  -2948185.17942  24957171.2074         39.7504         17.2504
G06  24302067.4694   -2707450.43546  -3522140.42743  24302062.2304         36.2504         20.2504
G07  23095631.8754  -11369726.68847 -10678205.30645  23095623.5904         44.0004         32.5004
G13  21770382.8204  -18903180.02047 -15704534.11745  21770374.1254         47.0004         35.0004
G16  21554239.1024  -18496306.93747 -14110667.40645  21554229.0594         46.5004         32.5004
G20  20768549.5784  -25592491.65248 -19919194.84846  20768540.6484         49.2504         41.5004
G23  20581203.3364  -25940287.01148 -21017751.95046  20581191.8284         50.5004         40.5004
G31  25742170.0314    2166122.19145   3189489.06243  25742160.5164         35.2504         20.5004
> 2010 04 04 00 29 00.0000000  0  9
G03  24163702.0864   -6019315.59846  -5837979.53543  24163695.5004         39.0004         19.0004
G04  24961008.5234   -3797575.19546  -2932499.97442  24961002.4064         40.0004         17.7504
